{
"type": "FeatureCollection",
"name": "hotosm_tha_sea_ports_points_geojson",
"features": [
{ "type": "Feature", "properties": { "name": "20号码头", "name:en": null, "amenity": "ferry_terminal", "building": null, "port": null, "operator:type": null, "addr:full": null, "addr:city": null, "source": null, "name:th": null, "osm_id": 7307604885, "osm_type": "nodes" }, "geometry": { "type": "Point", "coordinates": [ 98.4927322, 16.7108066 ] } },
{ "type": "Feature", "properties": { "name": "17号码头", "name:en": null, "amenity": "ferry_terminal", "building": null, "port": null, "operator:type": null, "addr:full": null, "addr:city": null, "source": null, "name:th": null, "osm_id": 12491771566, "osm_type": "nodes" }, "geometry": { "type": "Point", "coordinates": [ 98.5168624, 16.6734669 ] } },
{ "type": "Feature", "properties": { "name": null, "name:en": null, "amenity": "ferry_terminal", "building": null, "port": null, "operator:type": null, "addr:full": null, "addr:city": null, "source": null, "name:th": null, "osm_id": 12522321717, "osm_type": "nodes" }, "geometry": { "type": "Point", "coordinates": [ 98.5187606, 16.677952 ] } },
{ "type": "Feature", "properties": { "name": "18号码头", "name:en": null, "amenity": "ferry_terminal", "building": null, "port": null, "operator:type": null, "addr:full": null, "addr:city": null, "source": null, "name:th": null, "osm_id": 12535451031, "osm_type": "nodes" }, "geometry": { "type": "Point", "coordinates": [ 98.4973689, 16.7166169 ] } },
{ "type": "Feature", "properties": { "name": null, "name:en": null, "amenity": "ferry_terminal", "building": null, "port": null, "operator:type": null, "addr:full": null, "addr:city": null, "source": null, "name:th": null, "osm_id": 12535451036, "osm_type": "nodes" }, "geometry": { "type": "Point", "coordinates": [ 98.4973402, 16.716842 ] } },
{ "type": "Feature", "properties": { "name": "11号码头", "name:en": null, "amenity": "ferry_terminal", "building": null, "port": null, "operator:type": null, "addr:full": null, "addr:city": null, "source": null, "name:th": null, "osm_id": 12535451017, "osm_type": "nodes" }, "geometry": { "type": "Point", "coordinates": [ 98.4985555, 16.6966456 ] } },
{ "type": "Feature", "properties": { "name": null, "name:en": null, "amenity": "ferry_terminal", "building": null, "port": null, "operator:type": null, "addr:full": null, "addr:city": null, "source": null, "name:th": null, "osm_id": 10219050488, "osm_type": "nodes" }, "geometry": { "type": "Point", "coordinates": [ 98.8190218, 8.0334148 ] } },
{ "type": "Feature", "properties": { "name": null, "name:en": null, "amenity": "ferry_terminal", "building": null, "port": null, "operator:type": null, "addr:full": null, "addr:city": null, "source": null, "name:th": null, "osm_id": 9880257213, "osm_type": "nodes" }, "geometry": { "type": "Point", "coordinates": [ 98.5147389, 16.6615197 ] } },
{ "type": "Feature", "properties": { "name": "3号码头", "name:en": null, "amenity": "ferry_terminal", "building": null, "port": null, "operator:type": null, "addr:full": null, "addr:city": null, "source": null, "name:th": null, "osm_id": 9880282619, "osm_type": "nodes" }, "geometry": { "type": "Point", "coordinates": [ 98.5143097, 16.6619364 ] } },
{ "type": "Feature", "properties": { "name": null, "name:en": null, "amenity": "ferry_terminal", "building": null, "port": null, "operator:type": null, "addr:full": null, "addr:city": null, "source": null, "name:th": null, "osm_id": 12522311031, "osm_type": "nodes" }, "geometry": { "type": "Point", "coordinates": [ 98.5147137, 16.66234 ] } },
{ "type": "Feature", "properties": { "name": null, "name:en": null, "amenity": "ferry_terminal", "building": null, "port": null, "operator:type": null, "addr:full": null, "addr:city": null, "source": null, "name:th": null, "osm_id": 12522311067, "osm_type": "nodes" }, "geometry": { "type": "Point", "coordinates": [ 98.5147852, 16.6612638 ] } },
{ "type": "Feature", "properties": { "name": "1号码头", "name:en": null, "amenity": "ferry_terminal", "building": null, "port": null, "operator:type": null, "addr:full": null, "addr:city": null, "source": null, "name:th": null, "osm_id": 12522321718, "osm_type": "nodes" }, "geometry": { "type": "Point", "coordinates": [ 98.5180983, 16.6779232 ] } },
{ "type": "Feature", "properties": { "name": null, "name:en": null, "amenity": "ferry_terminal", "building": null, "port": null, "operator:type": null, "addr:full": null, "addr:city": null, "source": null, "name:th": null, "osm_id": 12535451022, "osm_type": "nodes" }, "geometry": { "type": "Point", "coordinates": [ 98.4990001, 16.6964188 ] } },
{ "type": "Feature", "properties": { "name": "ท่าเรือจุกเสม็ด", "name:en": "Chuksamed Pier", "amenity": "ferry_terminal", "building": null, "port": null, "operator:type": null, "addr:full": null, "addr:city": null, "source": null, "name:th": null, "osm_id": 10752240251, "osm_type": "nodes" }, "geometry": { "type": "Point", "coordinates": [ 100.9136373, 12.6229154 ] } },
{ "type": "Feature", "properties": { "name": null, "name:en": null, "amenity": "ferry_terminal", "building": null, "port": null, "operator:type": null, "addr:full": null, "addr:city": null, "source": null, "name:th": null, "osm_id": 12535451023, "osm_type": "nodes" }, "geometry": { "type": "Point", "coordinates": [ 98.4977324, 16.7043471 ] } },
{ "type": "Feature", "properties": { "name": "12号码头", "name:en": null, "amenity": "ferry_terminal", "building": null, "port": null, "operator:type": null, "addr:full": null, "addr:city": null, "source": null, "name:th": null, "osm_id": 12535477309, "osm_type": "nodes" }, "geometry": { "type": "Point", "coordinates": [ 98.4973519, 16.7043884 ] } },
{ "type": "Feature", "properties": { "name": null, "name:en": "Raja Ferry Lipa Noi Pier", "amenity": "ferry_terminal", "building": null, "port": null, "operator:type": null, "addr:full": null, "addr:city": null, "source": "Bing", "name:th": null, "osm_id": 4703394110, "osm_type": "nodes" }, "geometry": { "type": "Point", "coordinates": [ 99.9254135, 9.4816717 ] } },
{ "type": "Feature", "properties": { "name": "ท่าเรือหน้าบ้าน", "name:en": "Na Baan Pier", "amenity": "ferry_terminal", "building": null, "port": null, "operator:type": null, "addr:full": null, "addr:city": null, "source": null, "name:th": "ท่าเรือหน้าบ้าน", "osm_id": 1228583305, "osm_type": "nodes" }, "geometry": { "type": "Point", "coordinates": [ 100.7901561, 12.9224635 ] } },
{ "type": "Feature", "properties": { "name": null, "name:en": null, "amenity": "ferry_terminal", "building": null, "port": null, "operator:type": null, "addr:full": null, "addr:city": null, "source": null, "name:th": null, "osm_id": 11133849524, "osm_type": "nodes" }, "geometry": { "type": "Point", "coordinates": [ 98.5408968, 16.8117999 ] } },
{ "type": "Feature", "properties": { "name": "23号码头", "name:en": null, "amenity": "ferry_terminal", "building": null, "port": null, "operator:type": null, "addr:full": null, "addr:city": null, "source": null, "name:th": null, "osm_id": 11133849533, "osm_type": "nodes" }, "geometry": { "type": "Point", "coordinates": [ 98.5399142, 16.8123266 ] } },
{ "type": "Feature", "properties": { "name": "ท่าเรือแหลมบาลีฮาย", "name:en": "Pattaya Bali Hai Pier", "amenity": "ferry_terminal", "building": null, "port": null, "operator:type": null, "addr:full": null, "addr:city": null, "source": null, "name:th": "ท่าเรือแหลมบาลีฮาย", "osm_id": 1199397671, "osm_type": "nodes" }, "geometry": { "type": "Point", "coordinates": [ 100.8682968, 12.9288604 ] } },
{ "type": "Feature", "properties": { "name": "ท่าแพขนานยนต์บางปะอิน", "name:en": "Bang Pa-In Ferry Pier", "amenity": "ferry_terminal", "building": null, "port": null, "operator:type": null, "addr:full": null, "addr:city": null, "source": null, "name:th": null, "osm_id": 2398412864, "osm_type": "nodes" }, "geometry": { "type": "Point", "coordinates": [ 100.5739152, 14.223913 ] } },
{ "type": "Feature", "properties": { "name": "ท่าแพขนานยนต์บ้านแป้ง", "name:en": "Ban Pang Ferry Pier", "amenity": "ferry_terminal", "building": null, "port": null, "operator:type": null, "addr:full": null, "addr:city": null, "source": null, "name:th": null, "osm_id": 2398432530, "osm_type": "nodes" }, "geometry": { "type": "Point", "coordinates": [ 100.5723418, 14.2271079 ] } },
{ "type": "Feature", "properties": { "name": null, "name:en": null, "amenity": "ferry_terminal", "building": null, "port": null, "operator:type": null, "addr:full": null, "addr:city": null, "source": null, "name:th": null, "osm_id": 475515464, "osm_type": "nodes" }, "geometry": { "type": "Point", "coordinates": [ 100.4835216, 14.4266517 ] } },
{ "type": "Feature", "properties": { "name": "วัดเทพลีลา", "name:en": "Wat Thepleela", "amenity": "ferry_terminal", "building": null, "port": null, "operator:type": null, "addr:full": null, "addr:city": null, "source": null, "name:th": "วัดเทพลีลา", "osm_id": 566631063, "osm_type": "nodes" }, "geometry": { "type": "Point", "coordinates": [ 100.613781, 13.7599539 ] } },
{ "type": "Feature", "properties": { "name": "ประตูน้ำ", "name:en": "Pratunam", "amenity": "ferry_terminal", "building": null, "port": null, "operator:type": null, "addr:full": null, "addr:city": null, "source": null, "name:th": "ประตูน้ำ", "osm_id": 2321695929, "osm_type": "nodes" }, "geometry": { "type": "Point", "coordinates": [ 100.5414896, 13.7492229 ] } },
{ "type": "Feature", "properties": { "name": "ท่าเรือพระรามที่ 3", "name:en": "Rama III Pier", "amenity": "ferry_terminal", "building": null, "port": null, "operator:type": null, "addr:full": null, "addr:city": null, "source": null, "name:th": null, "osm_id": 4561417666, "osm_type": "nodes" }, "geometry": { "type": "Point", "coordinates": [ 100.538448, 13.6703741 ] } },
{ "type": "Feature", "properties": { "name": "วัดปากบ่อ", "name:en": "Wat Pak Bo", "amenity": "ferry_terminal", "building": null, "port": null, "operator:type": null, "addr:full": null, "addr:city": null, "source": null, "name:th": "วัดปากบ่อ", "osm_id": 7829305346, "osm_type": "nodes" }, "geometry": { "type": "Point", "coordinates": [ 100.6311654, 13.7149859 ] } },
{ "type": "Feature", "properties": { "name": "ชุมชนคลองจวน", "name:en": "Chumchon Khlong Chuan", "amenity": "ferry_terminal", "building": null, "port": null, "operator:type": null, "addr:full": null, "addr:city": null, "source": null, "name:th": "ชุมชนคลองจวน", "osm_id": 7829305347, "osm_type": "nodes" }, "geometry": { "type": "Point", "coordinates": [ 100.6333837, 13.7149393 ] } },
{ "type": "Feature", "properties": { "name": "คอนโดมิเนียม", "name:en": "Condominium", "amenity": "ferry_terminal", "building": null, "port": null, "operator:type": null, "addr:full": null, "addr:city": null, "source": null, "name:th": "คอนโดมิเนียม", "osm_id": 7829305341, "osm_type": "nodes" }, "geometry": { "type": "Point", "coordinates": [ 100.6159774, 13.7122365 ] } },
{ "type": "Feature", "properties": { "name": null, "name:en": "Ferry - 5฿ crossing", "amenity": "ferry_terminal", "building": null, "port": null, "operator:type": null, "addr:full": null, "addr:city": null, "source": null, "name:th": null, "osm_id": 1656008710, "osm_type": "nodes" }, "geometry": { "type": "Point", "coordinates": [ 99.5320083, 14.0115831 ] } },
{ "type": "Feature", "properties": { "name": "Boat To Ko Thalu", "name:en": null, "amenity": "ferry_terminal", "building": null, "port": null, "operator:type": null, "addr:full": null, "addr:city": null, "source": "Gpsmap 62sc Parie 2014", "name:th": null, "osm_id": 2569533740, "osm_type": "nodes" }, "geometry": { "type": "Point", "coordinates": [ 99.559341, 11.1911296 ] } },
{ "type": "Feature", "properties": { "name": null, "name:en": "Ferry - 5฿ crossing", "amenity": "ferry_terminal", "building": null, "port": null, "operator:type": null, "addr:full": null, "addr:city": null, "source": null, "name:th": null, "osm_id": 2607787920, "osm_type": "nodes" }, "geometry": { "type": "Point", "coordinates": [ 99.5304663, 14.0110367 ] } },
{ "type": "Feature", "properties": { "name": null, "name:en": null, "amenity": "ferry_terminal", "building": null, "port": null, "operator:type": null, "addr:full": null, "addr:city": null, "source": null, "name:th": null, "osm_id": 2385137131, "osm_type": "nodes" }, "geometry": { "type": "Point", "coordinates": [ 99.9557409, 13.423805 ] } },
{ "type": "Feature", "properties": { "name": "อู่รถเมล์สาย 9", "name:en": "U Rot Me Sai 9", "amenity": "ferry_terminal", "building": null, "port": null, "operator:type": null, "addr:full": null, "addr:city": null, "source": null, "name:th": "อู่รถเมล์สาย 9", "osm_id": 7829305294, "osm_type": "nodes" }, "geometry": { "type": "Point", "coordinates": [ 100.4662287, 13.7213471 ] } },
{ "type": "Feature", "properties": { "name": "วัดอรุณราชวราราม (Pier 2)", "name:en": "Wat Arun Ratchawararam (Pier 2)", "amenity": "ferry_terminal", "building": null, "port": null, "operator:type": null, "addr:full": null, "addr:city": null, "source": null, "name:th": null, "osm_id": 6463773575, "osm_type": "nodes" }, "geometry": { "type": "Point", "coordinates": [ 100.489838, 13.7440526 ] } },
{ "type": "Feature", "properties": { "name": "ท่าพระจันทร์", "name:en": "Tha Phra Chan", "amenity": "ferry_terminal", "building": null, "port": null, "operator:type": null, "addr:full": null, "addr:city": null, "source": null, "name:th": "ท่าพระจันทร์", "osm_id": 3309041506, "osm_type": "nodes" }, "geometry": { "type": "Point", "coordinates": [ 100.4886763, 13.7565171 ] } },
{ "type": "Feature", "properties": { "name": "ท่าเรือสี่พระยา (ประตู 1)", "name:en": "Si Phraya Pier (Gate 1)", "amenity": "ferry_terminal", "building": null, "port": null, "operator:type": null, "addr:full": null, "addr:city": null, "source": null, "name:th": "ท่าเรือสี่พระยา (ประตู 1)", "osm_id": 3946372581, "osm_type": "nodes" }, "geometry": { "type": "Point", "coordinates": [ 100.5129442, 13.729432 ] } },
{ "type": "Feature", "properties": { "name": "สุเหร่าบ้านดอน", "name:en": "Baan Don Mosque", "amenity": "ferry_terminal", "building": null, "port": null, "operator:type": null, "addr:full": null, "addr:city": null, "source": null, "name:th": "สุเหร่าบ้านดอน", "osm_id": 566630005, "osm_type": "nodes" }, "geometry": { "type": "Point", "coordinates": [ 100.581455, 13.7441488 ] } },
{ "type": "Feature", "properties": { "name": "วัดต้นไทรย์", "name:en": "Wat Ton Sai", "amenity": "ferry_terminal", "building": null, "port": null, "operator:type": null, "addr:full": null, "addr:city": null, "source": null, "name:th": "วัดต้นไทรย์", "osm_id": 7829305345, "osm_type": "nodes" }, "geometry": { "type": "Point", "coordinates": [ 100.6264786, 13.7129727 ] } },
{ "type": "Feature", "properties": { "name": "ท่าเรือแพเจี๊ยบ", "name:en": "Pae Jeab Pier", "amenity": "ferry_terminal", "building": null, "port": null, "operator:type": null, "addr:full": null, "addr:city": null, "source": null, "name:th": null, "osm_id": 7829320700, "osm_type": "nodes" }, "geometry": { "type": "Point", "coordinates": [ 100.559241, 13.7051128 ] } },
{ "type": "Feature", "properties": { "name": "วัดศรีบุญเรือง", "name:en": "Wat Sriboonrueng", "amenity": "ferry_terminal", "building": null, "port": null, "operator:type": null, "addr:full": null, "addr:city": null, "source": null, "name:th": "วัดศรีบุญเรือง", "osm_id": 566631929, "osm_type": "nodes" }, "geometry": { "type": "Point", "coordinates": [ 100.6521088, 13.7677237 ] } },
{ "type": "Feature", "properties": { "name": "นานาเหนือ", "name:en": "Nana Nua", "amenity": "ferry_terminal", "building": null, "port": null, "operator:type": null, "addr:full": null, "addr:city": null, "source": null, "name:th": "นานาเหนือ", "osm_id": 566622818, "osm_type": "nodes" }, "geometry": { "type": "Point", "coordinates": [ 100.554027, 13.7482266 ] } },
{ "type": "Feature", "properties": { "name": "เพชรเกษม 35", "name:en": "Phetchakasem 35", "amenity": "ferry_terminal", "building": null, "port": null, "operator:type": null, "addr:full": null, "addr:city": null, "source": null, "name:th": "เพชรเกษม 35", "osm_id": 7829305300, "osm_type": "nodes" }, "geometry": { "type": "Point", "coordinates": [ 100.4324609, 13.7095775 ] } },
{ "type": "Feature", "properties": { "name": "วัดรางบัว", "name:en": "Wat Rang Bua", "amenity": "ferry_terminal", "building": null, "port": null, "operator:type": null, "addr:full": null, "addr:city": null, "source": null, "name:th": "วัดรางบัว", "osm_id": 7829305298, "osm_type": "nodes" }, "geometry": { "type": "Point", "coordinates": [ 100.4387022, 13.7116659 ] } },
{ "type": "Feature", "properties": { "name": "วัดใต้", "name:en": "Wat Tai", "amenity": "ferry_terminal", "building": null, "port": null, "operator:type": null, "addr:full": null, "addr:city": null, "source": null, "name:th": "วัดใต้", "osm_id": 7829305338, "osm_type": "nodes" }, "geometry": { "type": "Point", "coordinates": [ 100.6029, 13.7135615 ] } },
{ "type": "Feature", "properties": { "name": "ท่าเรือวัดอาวุธวิกสิตาราม", "name:en": "Wat Awut Wikasitaram Pier", "amenity": "ferry_terminal", "building": null, "port": null, "operator:type": null, "addr:full": null, "addr:city": null, "source": null, "name:th": null, "osm_id": 7791237216, "osm_type": "nodes" }, "geometry": { "type": "Point", "coordinates": [ 100.5069843, 13.7894033 ] } },
{ "type": "Feature", "properties": { "name": "วัดเทพากร", "name:en": "Wat Thepakorn", "amenity": "ferry_terminal", "building": null, "port": null, "operator:type": null, "addr:full": null, "addr:city": null, "source": null, "name:th": null, "osm_id": 7791237208, "osm_type": "nodes" }, "geometry": { "type": "Point", "coordinates": [ 100.5034266, 13.7855317 ] } },
{ "type": "Feature", "properties": { "name": "ท่าเรือวัดบวรมงคล", "name:en": "Wat Bowon Mongkhon Pier", "amenity": "ferry_terminal", "building": null, "port": null, "operator:type": null, "addr:full": null, "addr:city": null, "source": null, "name:th": null, "osm_id": 3812958959, "osm_type": "nodes" }, "geometry": { "type": "Point", "coordinates": [ 100.4980775, 13.7742094 ] } },
{ "type": "Feature", "properties": { "name": "ท่าเรือโอเรียนเต็ล", "name:en": "Oriental Pier", "amenity": "ferry_terminal", "building": null, "port": null, "operator:type": null, "addr:full": null, "addr:city": null, "source": null, "name:th": "ท่าเรือโอเรียนเต็ล", "osm_id": 1408521453, "osm_type": "nodes" }, "geometry": { "type": "Point", "coordinates": [ 100.5135187, 13.7233146 ] } },
{ "type": "Feature", "properties": { "name": "ท่าเรือคลองบางลำพู", "name:en": "Kllong Banglamphu", "amenity": "ferry_terminal", "building": null, "port": null, "operator:type": null, "addr:full": null, "addr:city": null, "source": null, "name:th": "ท่าเรือคลองบางลำพู", "osm_id": 5835645103, "osm_type": "nodes" }, "geometry": { "type": "Point", "coordinates": [ 100.4983744, 13.7627136 ] } },
{ "type": "Feature", "properties": { "name": "เพชรเกษม 69", "name:en": "Phetchakasem 69", "amenity": "ferry_terminal", "building": null, "port": null, "operator:type": null, "addr:full": null, "addr:city": null, "source": null, "name:th": "เพชรเกษม 69", "osm_id": 7829305308, "osm_type": "nodes" }, "geometry": { "type": "Point", "coordinates": [ 100.38142, 13.6917591 ] } },
{ "type": "Feature", "properties": { "name": "วัดวรจรรยาวาส", "name:en": "Wat Worachanyawas", "amenity": "ferry_terminal", "building": null, "port": null, "operator:type": null, "addr:full": null, "addr:city": null, "source": null, "name:th": "วัดวรจรรยาวาส", "osm_id": 1408524161, "osm_type": "nodes" }, "geometry": { "type": "Point", "coordinates": [ 100.5068599, 13.7095433 ] } },
{ "type": "Feature", "properties": { "name": "ท่าเรือข้ามฟากวัดมหาชัยคล้ายนิมิตร", "name:en": null, "amenity": "ferry_terminal", "building": null, "port": null, "operator:type": null, "addr:full": null, "addr:city": null, "source": null, "name:th": null, "osm_id": 8093957532, "osm_type": "nodes" }, "geometry": { "type": "Point", "coordinates": [ 100.2776044, 13.5450304 ] } },
{ "type": "Feature", "properties": { "name": "ท่าเรือข้ามฟากมหาชัย", "name:en": null, "amenity": "ferry_terminal", "building": null, "port": null, "operator:type": null, "addr:full": null, "addr:city": null, "source": null, "name:th": null, "osm_id": 1183546146, "osm_type": "nodes" }, "geometry": { "type": "Point", "coordinates": [ 100.2750313, 13.5441369 ] } },
{ "type": "Feature", "properties": { "name": "สาทร (ตากสิน)", "name:en": "Sathorn (Taksin)", "amenity": "ferry_terminal", "building": null, "port": null, "operator:type": null, "addr:full": null, "addr:city": null, "source": null, "name:th": "สาทร (ตากสิน)", "osm_id": 1905838344, "osm_type": "nodes" }, "geometry": { "type": "Point", "coordinates": [ 100.5127108, 13.7188644 ] } },
{ "type": "Feature", "properties": { "name": "ท่าเรือวิบูลย์ศรี", "name:en": "Wibun Si Pier", "amenity": "ferry_terminal", "building": null, "port": null, "operator:type": null, "addr:full": null, "addr:city": null, "source": null, "name:th": "ท่าเรือวิบูลย์ศรี", "osm_id": 247799583, "osm_type": "nodes" }, "geometry": { "type": "Point", "coordinates": [ 100.595749, 13.5950876 ] } },
{ "type": "Feature", "properties": { "name": "ท่าเรือวัดบางกะเจ้านอก", "name:en": "Wat Bang Kachao Nok Pier", "amenity": "ferry_terminal", "building": null, "port": null, "operator:type": null, "addr:full": null, "addr:city": null, "source": null, "name:th": null, "osm_id": 1799590892, "osm_type": "nodes" }, "geometry": { "type": "Point", "coordinates": [ 100.5542208, 13.6890041 ] } },
{ "type": "Feature", "properties": { "name": "ท่าเรือสาธุประดิษฐ์", "name:en": "Sathu Pradit Pier", "amenity": "ferry_terminal", "building": null, "port": null, "operator:type": null, "addr:full": null, "addr:city": null, "source": null, "name:th": null, "osm_id": 2393558026, "osm_type": "nodes" }, "geometry": { "type": "Point", "coordinates": [ 100.5272491, 13.6769773 ] } },
{ "type": "Feature", "properties": { "name": "ท่าเรือวัดบางพึ่ง", "name:en": "Wat Bang Phueng Pier", "amenity": "ferry_terminal", "building": null, "port": null, "operator:type": null, "addr:full": null, "addr:city": null, "source": null, "name:th": null, "osm_id": 7829320711, "osm_type": "nodes" }, "geometry": { "type": "Point", "coordinates": [ 100.5235959, 13.6750474 ] } },
{ "type": "Feature", "properties": { "name": "ท่าเรือตากสิน", "name:en": "Taksin Pier", "amenity": "ferry_terminal", "building": null, "port": null, "operator:type": null, "addr:full": null, "addr:city": null, "source": null, "name:th": "ท่าเรือตากสิน", "osm_id": 3578835663, "osm_type": "nodes" }, "geometry": { "type": "Point", "coordinates": [ 100.5113205, 13.7200153 ] } },
{ "type": "Feature", "properties": { "name": "Songserm Mattaphon Pier", "name:en": null, "amenity": "ferry_terminal", "building": null, "port": null, "operator:type": null, "addr:full": null, "addr:city": null, "source": null, "name:th": "Chumphon Songserm Mattaphon Pier", "osm_id": 4340536631, "osm_type": "nodes" }, "geometry": { "type": "Point", "coordinates": [ 99.2482268, 10.4459235 ] } },
{ "type": "Feature", "properties": { "name": null, "name:en": null, "amenity": "ferry_terminal", "building": null, "port": null, "operator:type": null, "addr:full": null, "addr:city": null, "source": null, "name:th": null, "osm_id": 2631122460, "osm_type": "nodes" }, "geometry": { "type": "Point", "coordinates": [ 99.2463331, 10.441236 ] } },
{ "type": "Feature", "properties": { "name": "Tha Ao Po Pier", "name:en": null, "amenity": "ferry_terminal", "building": null, "port": null, "operator:type": null, "addr:full": null, "addr:city": null, "source": null, "name:th": null, "osm_id": 2281359240, "osm_type": "nodes" }, "geometry": { "type": "Point", "coordinates": [ 98.595669, 8.1430747 ] } },
{ "type": "Feature", "properties": { "name": "Tha Laem Sai Pier", "name:en": null, "amenity": "ferry_terminal", "building": null, "port": null, "operator:type": null, "addr:full": null, "addr:city": null, "source": null, "name:th": null, "osm_id": 2417282449, "osm_type": "nodes" }, "geometry": { "type": "Point", "coordinates": [ 98.6089225, 8.0818045 ] } },
{ "type": "Feature", "properties": { "name": null, "name:en": null, "amenity": "ferry_terminal", "building": null, "port": null, "operator:type": null, "addr:full": null, "addr:city": null, "source": null, "name:th": null, "osm_id": 2457612015, "osm_type": "nodes" }, "geometry": { "type": "Point", "coordinates": [ 98.4710692, 9.8533875 ] } },
{ "type": "Feature", "properties": { "name": "Tha Sapparot Pier", "name:en": null, "amenity": "ferry_terminal", "building": null, "port": null, "operator:type": null, "addr:full": null, "addr:city": null, "source": null, "name:th": null, "osm_id": 2507757433, "osm_type": "nodes" }, "geometry": { "type": "Point", "coordinates": [ 102.2804378, 12.1415548 ] } },
{ "type": "Feature", "properties": { "name": "Surakul Pier", "name:en": null, "amenity": "ferry_terminal", "building": null, "port": null, "operator:type": null, "addr:full": null, "addr:city": null, "source": null, "name:th": "ท่าเรือ สุระกุล", "osm_id": 2328228554, "osm_type": "nodes" }, "geometry": { "type": "Point", "coordinates": [ 98.4591612, 8.3889923 ] } },
{ "type": "Feature", "properties": { "name": "อันดามันพอร์ต", "name:en": "Andaman Port", "amenity": "ferry_terminal", "building": null, "port": null, "operator:type": null, "addr:full": null, "addr:city": null, "source": null, "name:th": "อันดามันพอร์ต", "osm_id": 2713457869, "osm_type": "nodes" }, "geometry": { "type": "Point", "coordinates": [ 99.1958471, 7.674486 ] } },
{ "type": "Feature", "properties": { "name": "Laem Kruat Pier", "name:en": null, "amenity": "ferry_terminal", "building": null, "port": null, "operator:type": null, "addr:full": null, "addr:city": null, "source": null, "name:th": null, "osm_id": 1094544940, "osm_type": "nodes" }, "geometry": { "type": "Point", "coordinates": [ 99.0270494, 7.888348 ] } },
{ "type": "Feature", "properties": { "name": null, "name:en": null, "amenity": "ferry_terminal", "building": null, "port": null, "operator:type": null, "addr:full": null, "addr:city": null, "source": null, "name:th": null, "osm_id": 2503687262, "osm_type": "nodes" }, "geometry": { "type": "Point", "coordinates": [ 99.1191448, 7.53843 ] } },
{ "type": "Feature", "properties": { "name": null, "name:en": null, "amenity": "ferry_terminal", "building": null, "port": null, "operator:type": null, "addr:full": null, "addr:city": null, "source": null, "name:th": null, "osm_id": 4022084618, "osm_type": "nodes" }, "geometry": { "type": "Point", "coordinates": [ 99.1428908, 7.559301 ] } },
{ "type": "Feature", "properties": { "name": "เดอะมอลล์บางกะปิ", "name:en": "The Mall Bangkapi", "amenity": "ferry_terminal", "building": null, "port": null, "operator:type": null, "addr:full": null, "addr:city": null, "source": null, "name:th": "เดอะมอลล์บางกะปิ", "osm_id": 566631808, "osm_type": "nodes" }, "geometry": { "type": "Point", "coordinates": [ 100.6434461, 13.764643 ] } },
{ "type": "Feature", "properties": { "name": "ท่ารถไฟ", "name:en": "Thonburi Railway", "amenity": "ferry_terminal", "building": null, "port": null, "operator:type": null, "addr:full": null, "addr:city": null, "source": null, "name:th": "ท่ารถไฟ", "osm_id": 3053005367, "osm_type": "nodes" }, "geometry": { "type": "Point", "coordinates": [ 100.4878041, 13.759207 ] } },
{ "type": "Feature", "properties": { "name": "ท่าวังหลัง", "name:en": "Tha Wang Lang", "amenity": "ferry_terminal", "building": null, "port": null, "operator:type": null, "addr:full": null, "addr:city": null, "source": null, "name:th": "ท่าวังหลัง", "osm_id": 3309041492, "osm_type": "nodes" }, "geometry": { "type": "Point", "coordinates": [ 100.4868675, 13.7560095 ] } },
{ "type": "Feature", "properties": { "name": "วัดกลาง", "name:en": "Wat Klang", "amenity": "ferry_terminal", "building": null, "port": null, "operator:type": null, "addr:full": null, "addr:city": null, "source": null, "name:th": "วัดกลาง", "osm_id": 2902806579, "osm_type": "nodes" }, "geometry": { "type": "Point", "coordinates": [ 100.633571, 13.7634595 ] } },
{ "type": "Feature", "properties": { "name": "เดอะมอลล์ราม", "name:en": "The Mall Ram", "amenity": "ferry_terminal", "building": null, "port": null, "operator:type": null, "addr:full": null, "addr:city": null, "source": null, "name:th": "เดอะมอลล์ราม", "osm_id": 566630389, "osm_type": "nodes" }, "geometry": { "type": "Point", "coordinates": [ 100.6081306, 13.754653 ] } },
{ "type": "Feature", "properties": { "name": "วัดเทพนารี", "name:en": "Wat Thepnahree", "amenity": "ferry_terminal", "building": null, "port": null, "operator:type": null, "addr:full": null, "addr:city": null, "source": null, "name:th": null, "osm_id": 7791237205, "osm_type": "nodes" }, "geometry": { "type": "Point", "coordinates": [ 100.5023314, 13.7839664 ] } },
{ "type": "Feature", "properties": { "name": "วัดเขียน", "name:en": "Wat Kien", "amenity": "ferry_terminal", "building": null, "port": null, "operator:type": null, "addr:full": null, "addr:city": null, "source": null, "name:th": "วัดเขียน", "osm_id": 1408337602, "osm_type": "nodes" }, "geometry": { "type": "Point", "coordinates": [ 100.496902, 13.8282189 ] } },
{ "type": "Feature", "properties": { "name": "พายัพ", "name:en": "Payap", "amenity": "ferry_terminal", "building": null, "port": null, "operator:type": null, "addr:full": null, "addr:city": null, "source": null, "name:th": "พายัพ", "osm_id": 1408346288, "osm_type": "nodes" }, "geometry": { "type": "Point", "coordinates": [ 100.508141, 13.7875432 ] } },
{ "type": "Feature", "properties": { "name": "สะพานพระราม 5", "name:en": "Rama 5 Bridge", "amenity": "ferry_terminal", "building": null, "port": null, "operator:type": null, "addr:full": null, "addr:city": null, "source": null, "name:th": "สะพานพระราม 5", "osm_id": 1408337592, "osm_type": "nodes" }, "geometry": { "type": "Point", "coordinates": [ 100.4938913, 13.8322091 ] } },
{ "type": "Feature", "properties": { "name": "นนทบุรี", "name:en": "Nonthaburi", "amenity": "ferry_terminal", "building": null, "port": null, "operator:type": null, "addr:full": null, "addr:city": null, "source": null, "name:th": "นนทบุรี", "osm_id": 1408337604, "osm_type": "nodes" }, "geometry": { "type": "Point", "coordinates": [ 100.4911555, 13.8418616 ] } },
{ "type": "Feature", "properties": { "name": "พิบูลสงคราม 1", "name:en": "Pibul 1", "amenity": "ferry_terminal", "building": null, "port": null, "operator:type": null, "addr:full": null, "addr:city": null, "source": null, "name:th": null, "osm_id": 7791237222, "osm_type": "nodes" }, "geometry": { "type": "Point", "coordinates": [ 100.5055923, 13.8176906 ] } },
{ "type": "Feature", "properties": { "name": "วัดเขมา", "name:en": "Wat Khema", "amenity": "ferry_terminal", "building": null, "port": null, "operator:type": null, "addr:full": null, "addr:city": null, "source": null, "name:th": null, "osm_id": 7791237223, "osm_type": "nodes" }, "geometry": { "type": "Point", "coordinates": [ 100.5020832, 13.8218306 ] } },
{ "type": "Feature", "properties": { "name": "พิบูลสงคราม 2", "name:en": "Pibul 2", "amenity": "ferry_terminal", "building": null, "port": null, "operator:type": null, "addr:full": null, "addr:city": null, "source": null, "name:th": "พิบูลสงคราม 2", "osm_id": 1905838343, "osm_type": "nodes" }, "geometry": { "type": "Point", "coordinates": [ 100.49627, 13.8329058 ] } },
{ "type": "Feature", "properties": { "name": "วัดคฤหบดี", "name:en": "Wat Kharuehabodi", "amenity": "ferry_terminal", "building": null, "port": null, "operator:type": null, "addr:full": null, "addr:city": null, "source": null, "name:th": null, "osm_id": 3812958499, "osm_type": "nodes" }, "geometry": { "type": "Point", "coordinates": [ 100.4971703, 13.7718923 ] } },
{ "type": "Feature", "properties": { "name": "สะพานกรุงธน", "name:en": "Krung Thon Bridge", "amenity": "ferry_terminal", "building": null, "port": null, "operator:type": null, "addr:full": null, "addr:city": null, "source": null, "name:th": "สะพานกรุงธน", "osm_id": 1342348755, "osm_type": "nodes" }, "geometry": { "type": "Point", "coordinates": [ 100.5010755, 13.781526 ] } },
{ "type": "Feature", "properties": { "name": "Songserm Nathon Pier", "name:en": null, "amenity": "ferry_terminal", "building": null, "port": null, "operator:type": null, "addr:full": null, "addr:city": null, "source": null, "name:th": null, "osm_id": 3266087659, "osm_type": "nodes" }, "geometry": { "type": "Point", "coordinates": [ 99.93094, 9.5356458 ] } },
{ "type": "Feature", "properties": { "name": "Nightboat Nathon Pier", "name:en": null, "amenity": "ferry_terminal", "building": null, "port": null, "operator:type": null, "addr:full": null, "addr:city": null, "source": null, "name:th": null, "osm_id": 4775993791, "osm_type": "nodes" }, "geometry": { "type": "Point", "coordinates": [ 99.9316284, 9.5363987 ] } },
{ "type": "Feature", "properties": { "name": "Ko Muk", "name:en": null, "amenity": "ferry_terminal", "building": null, "port": null, "operator:type": null, "addr:full": null, "addr:city": null, "source": null, "name:th": null, "osm_id": 620942221, "osm_type": "nodes" }, "geometry": { "type": "Point", "coordinates": [ 99.3104418, 7.3780869 ] } },
{ "type": "Feature", "properties": { "name": null, "name:en": null, "amenity": "ferry_terminal", "building": null, "port": null, "operator:type": null, "addr:full": null, "addr:city": null, "source": null, "name:th": null, "osm_id": 446046060, "osm_type": "nodes" }, "geometry": { "type": "Point", "coordinates": [ 98.2726674, 8.8737596 ] } },
{ "type": "Feature", "properties": { "name": null, "name:en": null, "amenity": "ferry_terminal", "building": null, "port": null, "operator:type": null, "addr:full": null, "addr:city": null, "source": null, "name:th": null, "osm_id": 5148592806, "osm_type": "nodes" }, "geometry": { "type": "Point", "coordinates": [ 98.2726521, 8.8734473 ] } },
{ "type": "Feature", "properties": { "name": "Rawai Pier", "name:en": null, "amenity": "ferry_terminal", "building": null, "port": null, "operator:type": null, "addr:full": null, "addr:city": null, "source": null, "name:th": null, "osm_id": 1562225016, "osm_type": "nodes" }, "geometry": { "type": "Point", "coordinates": [ 98.3286547, 7.7721946 ] } },
{ "type": "Feature", "properties": { "name": null, "name:en": null, "amenity": "ferry_terminal", "building": null, "port": null, "operator:type": null, "addr:full": null, "addr:city": null, "source": null, "name:th": null, "osm_id": 340347055, "osm_type": "nodes" }, "geometry": { "type": "Point", "coordinates": [ 98.8221347, 8.0306527 ] } },
{ "type": "Feature", "properties": { "name": null, "name:en": null, "amenity": "ferry_terminal", "building": null, "port": null, "operator:type": null, "addr:full": null, "addr:city": null, "source": null, "name:th": null, "osm_id": 1656349633, "osm_type": "nodes" }, "geometry": { "type": "Point", "coordinates": [ 100.5021883, 13.932424 ] } },
{ "type": "Feature", "properties": { "name": "ท่าเรือวัดพนัญเชิง", "name:en": "Wat Phananchoeng Ferry Terminal", "amenity": "ferry_terminal", "building": null, "port": null, "operator:type": null, "addr:full": null, "addr:city": null, "source": null, "name:th": null, "osm_id": 1726998494, "osm_type": "nodes" }, "geometry": { "type": "Point", "coordinates": [ 100.5786539, 14.344829 ] } },
{ "type": "Feature", "properties": { "name": "ปากเกร็ด", "name:en": "Pakkret", "amenity": "ferry_terminal", "building": null, "port": null, "operator:type": null, "addr:full": null, "addr:city": null, "source": null, "name:th": null, "osm_id": 1387912487, "osm_type": "nodes" }, "geometry": { "type": "Point", "coordinates": [ 100.4946496, 13.91533 ] } },
{ "type": "Feature", "properties": { "name": "ท่าวัดปรมัยยิกาวาส", "name:en": "Wat Pora Mai Yi Ka Wat Ferry Pier", "amenity": "ferry_terminal", "building": null, "port": null, "operator:type": null, "addr:full": null, "addr:city": null, "source": null, "name:th": "ท่าวัดปรมัยยิกาวาส", "osm_id": 1388321883, "osm_type": "nodes" }, "geometry": { "type": "Point", "coordinates": [ 100.4906939, 13.9126861 ] } },
{ "type": "Feature", "properties": { "name": "วัดกลางเกร็ด", "name:en": "Wat Klangkret", "amenity": "ferry_terminal", "building": null, "port": null, "operator:type": null, "addr:full": null, "addr:city": null, "source": null, "name:th": null, "osm_id": 1645239685, "osm_type": "nodes" }, "geometry": { "type": "Point", "coordinates": [ 100.4913828, 13.9051733 ] } },
{ "type": "Feature", "properties": { "name": "กระทรวงพาณิชย์", "name:en": "Ministry of Commerce", "amenity": "ferry_terminal", "building": null, "port": null, "operator:type": null, "addr:full": null, "addr:city": null, "source": null, "name:th": null, "osm_id": 1645239724, "osm_type": "nodes" }, "geometry": { "type": "Point", "coordinates": [ 100.4851632, 13.8832667 ] } },
{ "type": "Feature", "properties": { "name": null, "name:en": null, "amenity": "ferry_terminal", "building": null, "port": null, "operator:type": null, "addr:full": null, "addr:city": null, "source": null, "name:th": null, "osm_id": 11133849536, "osm_type": "nodes" }, "geometry": { "type": "Point", "coordinates": [ 98.5387017, 16.8119978 ] } },
{ "type": "Feature", "properties": { "name": null, "name:en": null, "amenity": "ferry_terminal", "building": null, "port": null, "operator:type": null, "addr:full": null, "addr:city": null, "source": null, "name:th": null, "osm_id": 9844151229, "osm_type": "nodes" }, "geometry": { "type": "Point", "coordinates": [ 98.5095663, 16.837899 ] } },
{ "type": "Feature", "properties": { "name": null, "name:en": null, "amenity": "ferry_terminal", "building": null, "port": null, "operator:type": null, "addr:full": null, "addr:city": null, "source": null, "name:th": null, "osm_id": 5945237945, "osm_type": "nodes" }, "geometry": { "type": "Point", "coordinates": [ 98.9958336, 7.8941257 ] } },
{ "type": "Feature", "properties": { "name": "Laem Hin Pier", "name:en": null, "amenity": "ferry_terminal", "building": null, "port": null, "operator:type": null, "addr:full": null, "addr:city": null, "source": null, "name:th": null, "osm_id": 1094543610, "osm_type": "nodes" }, "geometry": { "type": "Point", "coordinates": [ 98.9743633, 7.9347481 ] } },
{ "type": "Feature", "properties": { "name": null, "name:en": null, "amenity": "ferry_terminal", "building": null, "port": null, "operator:type": null, "addr:full": null, "addr:city": null, "source": null, "name:th": null, "osm_id": 1291689899, "osm_type": "nodes" }, "geometry": { "type": "Point", "coordinates": [ 98.9739026, 7.9274709 ] } },
{ "type": "Feature", "properties": { "name": null, "name:en": null, "amenity": "ferry_terminal", "building": null, "port": null, "operator:type": null, "addr:full": null, "addr:city": null, "source": null, "name:th": null, "osm_id": 1291688420, "osm_type": "nodes" }, "geometry": { "type": "Point", "coordinates": [ 98.9561551, 7.9936257 ] } },
{ "type": "Feature", "properties": { "name": null, "name:en": null, "amenity": "ferry_terminal", "building": null, "port": null, "operator:type": null, "addr:full": null, "addr:city": null, "source": null, "name:th": null, "osm_id": 5458482718, "osm_type": "nodes" }, "geometry": { "type": "Point", "coordinates": [ 98.9607863, 7.9920938 ] } },
{ "type": "Feature", "properties": { "name": null, "name:en": null, "amenity": "ferry_terminal", "building": null, "port": null, "operator:type": null, "addr:full": null, "addr:city": null, "source": null, "name:th": null, "osm_id": 1787922459, "osm_type": "nodes" }, "geometry": { "type": "Point", "coordinates": [ 99.5080756, 7.4067587 ] } },
{ "type": "Feature", "properties": { "name": null, "name:en": null, "amenity": "ferry_terminal", "building": null, "port": null, "operator:type": null, "addr:full": null, "addr:city": null, "source": null, "name:th": null, "osm_id": 1787922464, "osm_type": "nodes" }, "geometry": { "type": "Point", "coordinates": [ 99.5051443, 7.4092154 ] } },
{ "type": "Feature", "properties": { "name": null, "name:en": null, "amenity": "ferry_terminal", "building": null, "port": null, "operator:type": null, "addr:full": null, "addr:city": null, "source": null, "name:th": null, "osm_id": 1183546472, "osm_type": "nodes" }, "geometry": { "type": "Point", "coordinates": [ 100.269666, 13.5429115 ] } },
{ "type": "Feature", "properties": { "name": "ท่าเรือข้ามฟากวัดตึกมหาชยาราม", "name:en": null, "amenity": "ferry_terminal", "building": null, "port": null, "operator:type": null, "addr:full": null, "addr:city": null, "source": null, "name:th": null, "osm_id": 8093957531, "osm_type": "nodes" }, "geometry": { "type": "Point", "coordinates": [ 100.2777978, 13.5447738 ] } },
{ "type": "Feature", "properties": { "name": null, "name:en": "Haad Rin Queen", "amenity": "ferry_terminal", "building": null, "port": null, "operator:type": null, "addr:full": null, "addr:city": null, "source": null, "name:th": null, "osm_id": 1827305028, "osm_type": "nodes" }, "geometry": { "type": "Point", "coordinates": [ 100.063244, 9.6738945 ] } },
{ "type": "Feature", "properties": { "name": null, "name:en": null, "amenity": "ferry_terminal", "building": null, "port": null, "operator:type": null, "addr:full": null, "addr:city": null, "source": null, "name:th": null, "osm_id": 2389162339, "osm_type": "nodes" }, "geometry": { "type": "Point", "coordinates": [ 100.5750057, 14.3662529 ] } },
{ "type": "Feature", "properties": { "name": null, "name:en": null, "amenity": "ferry_terminal", "building": null, "port": null, "operator:type": null, "addr:full": null, "addr:city": null, "source": null, "name:th": null, "osm_id": 7501363379, "osm_type": "nodes" }, "geometry": { "type": "Point", "coordinates": [ 100.5610754, 14.3422217 ] } },
{ "type": "Feature", "properties": { "name": null, "name:en": null, "amenity": "ferry_terminal", "building": null, "port": null, "operator:type": null, "addr:full": null, "addr:city": null, "source": null, "name:th": null, "osm_id": 7501363378, "osm_type": "nodes" }, "geometry": { "type": "Point", "coordinates": [ 100.5609307, 14.3414645 ] } },
{ "type": "Feature", "properties": { "name": "ท่าเรือข้ามฟากท่าน้ำนนท์", "name:en": "Nonthaburi Ferry Pier", "amenity": "ferry_terminal", "building": null, "port": null, "operator:type": null, "addr:full": null, "addr:city": null, "source": null, "name:th": "ท่าเรือข้ามฟากท่าน้ำนนท์", "osm_id": 6549136022, "osm_type": "nodes" }, "geometry": { "type": "Point", "coordinates": [ 100.4910185, 13.8425105 ] } },
{ "type": "Feature", "properties": { "name": "Cape Pathiu Pier", "name:en": null, "amenity": "ferry_terminal", "building": null, "port": null, "operator:type": null, "addr:full": null, "addr:city": null, "source": null, "name:th": null, "osm_id": 9025778872, "osm_type": "nodes" }, "geometry": { "type": "Point", "coordinates": [ 99.3812401, 10.711952 ] } },
{ "type": "Feature", "properties": { "name": "ชิดลม", "name:en": "Chidlom", "amenity": "ferry_terminal", "building": null, "port": null, "operator:type": null, "addr:full": null, "addr:city": null, "source": null, "name:th": "ชิดลม", "osm_id": 566622607, "osm_type": "nodes" }, "geometry": { "type": "Point", "coordinates": [ 100.5445742, 13.7487051 ] } },
{ "type": "Feature", "properties": { "name": "ท่าเรือวัดดาวดึงษาราม", "name:en": "Wat Daowaduengsaram Pier", "amenity": "ferry_terminal", "building": null, "port": null, "operator:type": null, "addr:full": null, "addr:city": null, "source": null, "name:th": null, "osm_id": 1632824440, "osm_type": "nodes" }, "geometry": { "type": "Point", "coordinates": [ 100.4934036, 13.765395 ] } },
{ "type": "Feature", "properties": { "name": "ท่าเรือพระประแดง", "name:en": "Phra Pradaeng Pier", "amenity": "ferry_terminal", "building": null, "port": null, "operator:type": null, "addr:full": null, "addr:city": null, "source": null, "name:th": null, "osm_id": 1623682066, "osm_type": "nodes" }, "geometry": { "type": "Point", "coordinates": [ 100.5341593, 13.6570342 ] } },
{ "type": "Feature", "properties": { "name": "Laem Kruat longtail pier", "name:en": null, "amenity": "ferry_terminal", "building": null, "port": null, "operator:type": null, "addr:full": null, "addr:city": null, "source": null, "name:th": null, "osm_id": 2058425412, "osm_type": "nodes" }, "geometry": { "type": "Point", "coordinates": [ 99.0280755, 7.8899801 ] } },
{ "type": "Feature", "properties": { "name": null, "name:en": null, "amenity": "ferry_terminal", "building": null, "port": null, "operator:type": null, "addr:full": null, "addr:city": null, "source": null, "name:th": null, "osm_id": 12491771570, "osm_type": "nodes" }, "geometry": { "type": "Point", "coordinates": [ 98.5173005, 16.6733111 ] } },
{ "type": "Feature", "properties": { "name": "ตลาดโบ๊เบ๊", "name:en": "Talad Bobae", "amenity": "ferry_terminal", "building": null, "port": null, "operator:type": null, "addr:full": null, "addr:city": null, "source": null, "name:th": "ตลาดโบ๊เบ๊", "osm_id": 567014146, "osm_type": "nodes" }, "geometry": { "type": "Point", "coordinates": [ 100.515961, 13.7534236 ] } },
{ "type": "Feature", "properties": { "name": "ท่าเรือวัดบางน้ำผึ้งนอก", "name:en": "Wat Bang Namphueng Nok Pier", "amenity": "ferry_terminal", "building": null, "port": null, "operator:type": null, "addr:full": null, "addr:city": null, "source": null, "name:th": null, "osm_id": 487075253, "osm_type": "nodes" }, "geometry": { "type": "Point", "coordinates": [ 100.5872296, 13.6824752 ] } },
{ "type": "Feature", "properties": { "name": "ท่าเรือวัดบางนานอก", "name:en": "Wat Bang Na Nok Pier", "amenity": "ferry_terminal", "building": null, "port": null, "operator:type": null, "addr:full": null, "addr:city": null, "source": null, "name:th": null, "osm_id": 487075255, "osm_type": "nodes" }, "geometry": { "type": "Point", "coordinates": [ 100.5873694, 13.6766314 ] } },
{ "type": "Feature", "properties": { "name": null, "name:en": null, "amenity": "ferry_terminal", "building": null, "port": null, "operator:type": null, "addr:full": null, "addr:city": null, "source": null, "name:th": null, "osm_id": 12528905212, "osm_type": "nodes" }, "geometry": { "type": "Point", "coordinates": [ 100.5868972, 13.6819114 ] } },
{ "type": "Feature", "properties": { "name": "Koh Maphrao Nok Pier", "name:en": null, "amenity": "ferry_terminal", "building": null, "port": null, "operator:type": null, "addr:full": null, "addr:city": null, "source": null, "name:th": null, "osm_id": 4996548421, "osm_type": "nodes" }, "geometry": { "type": "Point", "coordinates": [ 102.3924361, 11.9747207 ] } },
{ "type": "Feature", "properties": { "name": null, "name:en": null, "amenity": "ferry_terminal", "building": null, "port": null, "operator:type": null, "addr:full": null, "addr:city": null, "source": null, "name:th": null, "osm_id": 2506699466, "osm_type": "nodes" }, "geometry": { "type": "Point", "coordinates": [ 98.337814, 7.7789328 ] } },
{ "type": "Feature", "properties": { "name": null, "name:en": null, "amenity": "ferry_terminal", "building": null, "port": null, "operator:type": null, "addr:full": null, "addr:city": null, "source": null, "name:th": null, "osm_id": 6310499477, "osm_type": "nodes" }, "geometry": { "type": "Point", "coordinates": [ 99.0165574, 14.6727644 ] } },
{ "type": "Feature", "properties": { "name": "ท่าเรือเภตรา", "name:en": "Phetra Pier", "amenity": "ferry_terminal", "building": null, "port": null, "operator:type": null, "addr:full": null, "addr:city": null, "source": null, "name:th": "ท่าเรือเภตรา", "osm_id": 1189125946, "osm_type": "nodes" }, "geometry": { "type": "Point", "coordinates": [ 100.5374681, 13.6570694 ] } },
{ "type": "Feature", "properties": { "name": "ท่าเรือเทศบาลเมืองพระประแดง", "name:en": "Phra Pradaeng Town Municipality Pier", "amenity": "ferry_terminal", "building": null, "port": null, "operator:type": null, "addr:full": null, "addr:city": null, "source": null, "name:th": "ท่าเรือเทศบาลเมืองพระประแดง", "osm_id": 1199581265, "osm_type": "nodes" }, "geometry": { "type": "Point", "coordinates": [ 100.5348392, 13.6581576 ] } },
{ "type": "Feature", "properties": { "name": "ท่าเรือเภตรา", "name:en": "Phetra Pier", "amenity": "ferry_terminal", "building": null, "port": null, "operator:type": null, "addr:full": null, "addr:city": null, "source": null, "name:th": "ท่าเรือเภตรา", "osm_id": 7829320691, "osm_type": "nodes" }, "geometry": { "type": "Point", "coordinates": [ 100.53743, 13.6577342 ] } },
{ "type": "Feature", "properties": { "name": null, "name:en": null, "amenity": "ferry_terminal", "building": null, "port": null, "operator:type": null, "addr:full": null, "addr:city": null, "source": null, "name:th": null, "osm_id": 9967157903, "osm_type": "nodes" }, "geometry": { "type": "Point", "coordinates": [ 98.521944, 16.6498488 ] } },
{ "type": "Feature", "properties": { "name": null, "name:en": null, "amenity": "ferry_terminal", "building": null, "port": null, "operator:type": null, "addr:full": null, "addr:city": null, "source": null, "name:th": null, "osm_id": 11127413795, "osm_type": "nodes" }, "geometry": { "type": "Point", "coordinates": [ 98.5599985, 16.6339817 ] } },
{ "type": "Feature", "properties": { "name": null, "name:en": null, "amenity": "ferry_terminal", "building": null, "port": null, "operator:type": null, "addr:full": null, "addr:city": null, "source": null, "name:th": null, "osm_id": 11133786016, "osm_type": "nodes" }, "geometry": { "type": "Point", "coordinates": [ 98.5651052, 16.6310046 ] } },
{ "type": "Feature", "properties": { "name": null, "name:en": null, "amenity": "ferry_terminal", "building": null, "port": null, "operator:type": null, "addr:full": null, "addr:city": null, "source": null, "name:th": null, "osm_id": 11133786022, "osm_type": "nodes" }, "geometry": { "type": "Point", "coordinates": [ 98.5505254, 16.6353051 ] } },
{ "type": "Feature", "properties": { "name": null, "name:en": null, "amenity": "ferry_terminal", "building": null, "port": null, "operator:type": null, "addr:full": null, "addr:city": null, "source": null, "name:th": null, "osm_id": 9967156700, "osm_type": "nodes" }, "geometry": { "type": "Point", "coordinates": [ 98.5508739, 16.6357893 ] } },
{ "type": "Feature", "properties": { "name": null, "name:en": null, "amenity": "ferry_terminal", "building": null, "port": null, "operator:type": null, "addr:full": null, "addr:city": null, "source": null, "name:th": null, "osm_id": 9967157297, "osm_type": "nodes" }, "geometry": { "type": "Point", "coordinates": [ 98.5592585, 16.6337739 ] } },
{ "type": "Feature", "properties": { "name": null, "name:en": null, "amenity": "ferry_terminal", "building": null, "port": null, "operator:type": null, "addr:full": null, "addr:city": null, "source": null, "name:th": null, "osm_id": 9967157607, "osm_type": "nodes" }, "geometry": { "type": "Point", "coordinates": [ 98.5652912, 16.6306806 ] } },
{ "type": "Feature", "properties": { "name": null, "name:en": null, "amenity": "ferry_terminal", "building": null, "port": null, "operator:type": null, "addr:full": null, "addr:city": null, "source": null, "name:th": null, "osm_id": 9967157749, "osm_type": "nodes" }, "geometry": { "type": "Point", "coordinates": [ 98.5223054, 16.65028 ] } },
{ "type": "Feature", "properties": { "name": "ท่าเรือบ้านห้วยต้า", "name:en": null, "amenity": "ferry_terminal", "building": null, "port": null, "operator:type": null, "addr:full": null, "addr:city": null, "source": null, "name:th": null, "osm_id": 12115269302, "osm_type": "nodes" }, "geometry": { "type": "Point", "coordinates": [ 100.4776457, 17.9906079 ] } },
{ "type": "Feature", "properties": { "name": "25号码头", "name:en": null, "amenity": "ferry_terminal", "building": null, "port": null, "operator:type": null, "addr:full": null, "addr:city": null, "source": null, "name:th": null, "osm_id": 12535451006, "osm_type": "nodes" }, "geometry": { "type": "Point", "coordinates": [ 98.4937791, 16.7138768 ] } },
{ "type": "Feature", "properties": { "name": null, "name:en": null, "amenity": "ferry_terminal", "building": null, "port": null, "operator:type": null, "addr:full": null, "addr:city": null, "source": null, "name:th": null, "osm_id": 12551729380, "osm_type": "nodes" }, "geometry": { "type": "Point", "coordinates": [ 98.4932746, 16.7133271 ] } },
{ "type": "Feature", "properties": { "name": null, "name:en": null, "amenity": "ferry_terminal", "building": null, "port": null, "operator:type": null, "addr:full": null, "addr:city": null, "source": null, "name:th": null, "osm_id": 12551664985, "osm_type": "nodes" }, "geometry": { "type": "Point", "coordinates": [ 98.4967522, 16.7007438 ] } },
{ "type": "Feature", "properties": { "name": "13号码头", "name:en": null, "amenity": "ferry_terminal", "building": null, "port": null, "operator:type": null, "addr:full": null, "addr:city": null, "source": null, "name:th": null, "osm_id": 12551664986, "osm_type": "nodes" }, "geometry": { "type": "Point", "coordinates": [ 98.496378, 16.7007792 ] } },
{ "type": "Feature", "properties": { "name": "Laem Ngop Pier", "name:en": null, "amenity": "ferry_terminal", "building": null, "port": null, "operator:type": null, "addr:full": null, "addr:city": null, "source": null, "name:th": null, "osm_id": 2223926452, "osm_type": "nodes" }, "geometry": { "type": "Point", "coordinates": [ 102.3868607, 12.1753583 ] } },
{ "type": "Feature", "properties": { "name": null, "name:en": null, "amenity": "ferry_terminal", "building": null, "port": null, "operator:type": null, "addr:full": null, "addr:city": null, "source": null, "name:th": null, "osm_id": 1183700077, "osm_type": "nodes" }, "geometry": { "type": "Point", "coordinates": [ 99.9973965, 13.4081403 ] } },
{ "type": "Feature", "properties": { "name": "กรมชลประทาน", "name:en": "Irrigation Dept.", "amenity": "ferry_terminal", "building": null, "port": null, "operator:type": null, "addr:full": null, "addr:city": null, "source": null, "name:th": "กรมชลประทาน", "osm_id": 7791237213, "osm_type": "nodes" }, "geometry": { "type": "Point", "coordinates": [ 100.50953, 13.7888406 ] } },
{ "type": "Feature", "properties": { "name": "เขียวไข่กา", "name:en": "Kheaw Khai Ka", "amenity": "ferry_terminal", "building": null, "port": null, "operator:type": null, "addr:full": null, "addr:city": null, "source": null, "name:th": null, "osm_id": 7791237220, "osm_type": "nodes" }, "geometry": { "type": "Point", "coordinates": [ 100.5115992, 13.7911233 ] } },
{ "type": "Feature", "properties": { "name": null, "name:en": "MuTu Pier", "amenity": "ferry_terminal", "building": null, "port": null, "operator:type": null, "addr:full": null, "addr:city": null, "source": null, "name:th": null, "osm_id": 260964977, "osm_type": "nodes" }, "geometry": { "type": "Point", "coordinates": [ 98.9811561, 7.8100318 ] } },
{ "type": "Feature", "properties": { "name": "ท่าเรือบ้านเกาะปู", "name:en": "Ban Koh Pu pier", "amenity": "ferry_terminal", "building": null, "port": null, "operator:type": null, "addr:full": null, "addr:city": null, "source": null, "name:th": "ท่าเรือบ้านเกาะปู", "osm_id": 642936502, "osm_type": "nodes" }, "geometry": { "type": "Point", "coordinates": [ 98.9755582, 7.84911 ] } },
{ "type": "Feature", "properties": { "name": "ท่าเรือเกาะจัม", "name:en": "Koh Jum pier", "amenity": "ferry_terminal", "building": null, "port": null, "operator:type": null, "addr:full": null, "addr:city": null, "source": null, "name:th": "ท่าเรือเกาะจัม", "osm_id": 642936790, "osm_type": "nodes" }, "geometry": { "type": "Point", "coordinates": [ 98.9916723, 7.7968232 ] } },
{ "type": "Feature", "properties": { "name": "Yamu pier", "name:en": null, "amenity": "ferry_terminal", "building": null, "port": null, "operator:type": null, "addr:full": null, "addr:city": null, "source": null, "name:th": null, "osm_id": 5276840426, "osm_type": "nodes" }, "geometry": { "type": "Point", "coordinates": [ 98.4154897, 7.9903466 ] } },
{ "type": "Feature", "properties": { "name": "Ban Phe Pier", "name:en": "Chok Krisada Pier Ferry Boat and Speed Boat", "amenity": "ferry_terminal", "building": null, "port": null, "operator:type": null, "addr:full": null, "addr:city": null, "source": null, "name:th": null, "osm_id": 2078709709, "osm_type": "nodes" }, "geometry": { "type": "Point", "coordinates": [ 101.4385231, 12.627087 ] } },
{ "type": "Feature", "properties": { "name": "Speed Boat Pier 9mil Kip To LP", "name:en": null, "amenity": "ferry_terminal", "building": null, "port": null, "operator:type": null, "addr:full": null, "addr:city": null, "source": null, "name:th": null, "osm_id": 10601153330, "osm_type": "nodes" }, "geometry": { "type": "Point", "coordinates": [ 100.4268539, 20.2496378 ] } },
{ "type": "Feature", "properties": { "name": null, "name:en": null, "amenity": "ferry_terminal", "building": null, "port": null, "operator:type": null, "addr:full": null, "addr:city": null, "source": null, "name:th": null, "osm_id": 2493958172, "osm_type": "nodes" }, "geometry": { "type": "Point", "coordinates": [ 99.3981486, 7.221278 ] } },
{ "type": "Feature", "properties": { "name": "Ko Tao Diving", "name:en": null, "amenity": "ferry_terminal", "building": null, "port": null, "operator:type": null, "addr:full": null, "addr:city": null, "source": "Gpsmap 62sc Parie 2014", "name:th": null, "osm_id": 1650468138, "osm_type": "nodes" }, "geometry": { "type": "Point", "coordinates": [ 99.4847728, 11.1268969 ] } },
{ "type": "Feature", "properties": { "name": "Pier Koh Tha-Hu (closed)", "name:en": null, "amenity": "ferry_terminal", "building": null, "port": null, "operator:type": null, "addr:full": null, "addr:city": null, "source": "Gpsmap 62sc Parie 2014", "name:th": null, "osm_id": 2651938511, "osm_type": "nodes" }, "geometry": { "type": "Point", "coordinates": [ 99.4917738, 11.0915284 ] } },
{ "type": "Feature", "properties": { "name": "Koh Tha-Hu", "name:en": null, "amenity": "ferry_terminal", "building": null, "port": null, "operator:type": null, "addr:full": null, "addr:city": null, "source": null, "name:th": null, "osm_id": 12592540148, "osm_type": "nodes" }, "geometry": { "type": "Point", "coordinates": [ 99.4905778, 11.0885455 ] } },
{ "type": "Feature", "properties": { "name": "ท่าเรือเจ้าฟ้า", "name:en": "Chaofa Pier", "amenity": "ferry_terminal", "building": null, "port": null, "operator:type": null, "addr:full": null, "addr:city": null, "source": null, "name:th": "ท่าเรือเจ้าฟ้า", "osm_id": 10136622867, "osm_type": "nodes" }, "geometry": { "type": "Point", "coordinates": [ 98.9195058, 8.0627609 ] } },
{ "type": "Feature", "properties": { "name": "อโศก", "name:en": "Asok Pier", "amenity": "ferry_terminal", "building": null, "port": null, "operator:type": null, "addr:full": null, "addr:city": null, "source": null, "name:th": "อโศก", "osm_id": 566623721, "osm_type": "nodes" }, "geometry": { "type": "Point", "coordinates": [ 100.5629489, 13.747855 ] } },
{ "type": "Feature", "properties": { "name": null, "name:en": "Boat to Thailand (only for locals)", "amenity": "ferry_terminal", "building": null, "port": null, "operator:type": null, "addr:full": null, "addr:city": null, "source": null, "name:th": null, "osm_id": 12098205502, "osm_type": "nodes" }, "geometry": { "type": "Point", "coordinates": [ 100.0973956, 20.2910564 ] } },
{ "type": "Feature", "properties": { "name": null, "name:en": "Pier to Laem Mai Thai Island", "amenity": "ferry_terminal", "building": null, "port": null, "operator:type": null, "addr:full": null, "addr:city": null, "source": null, "name:th": null, "osm_id": 4580940793, "osm_type": "nodes" }, "geometry": { "type": "Point", "coordinates": [ 98.3736642, 9.2267806 ] } },
{ "type": "Feature", "properties": { "name": "ท่าเรือ-ด่านตรวจคนเข้าเมือง", "name:en": "Passenger Pier", "amenity": "ferry_terminal", "building": null, "port": null, "operator:type": null, "addr:full": null, "addr:city": null, "source": "GPS survey", "name:th": "ท่าเรือ-ด่านตรวจคนเข้าเมือง", "osm_id": 912500722, "osm_type": "nodes" }, "geometry": { "type": "Point", "coordinates": [ 103.6334413, 18.3852015 ] } },
{ "type": "Feature", "properties": { "name": "เกาะหลีเป๊ะ", "name:en": "Ko Lipe", "amenity": "ferry_terminal", "building": null, "port": null, "operator:type": null, "addr:full": null, "addr:city": null, "source": null, "name:th": "เกาะหลีเป๊ะ", "osm_id": 5425777804, "osm_type": "nodes" }, "geometry": { "type": "Point", "coordinates": [ 99.305613, 6.4850747 ] } },
{ "type": "Feature", "properties": { "name": null, "name:en": null, "amenity": "ferry_terminal", "building": null, "port": null, "operator:type": null, "addr:full": null, "addr:city": null, "source": null, "name:th": null, "osm_id": 775508788, "osm_type": "nodes" }, "geometry": { "type": "Point", "coordinates": [ 98.4232133, 9.7404444 ] } },
{ "type": "Feature", "properties": { "name": "หมู่บ้านร่มไทร", "name:en": "Rom Sai Village", "amenity": "ferry_terminal", "building": null, "port": null, "operator:type": null, "addr:full": null, "addr:city": null, "source": null, "name:th": "หมู่บ้านร่มไทร", "osm_id": 9758722607, "osm_type": "nodes" }, "geometry": { "type": "Point", "coordinates": [ 100.6814395, 13.7846294 ] } },
{ "type": "Feature", "properties": { "name": "พาซิโอ", "name:en": "Paseo", "amenity": "ferry_terminal", "building": null, "port": null, "operator:type": null, "addr:full": null, "addr:city": null, "source": null, "name:th": "พาซิโอ", "osm_id": 9758722599, "osm_type": "nodes" }, "geometry": { "type": "Point", "coordinates": [ 100.6658655, 13.7758477 ] } },
{ "type": "Feature", "properties": { "name": "เสรีไทย 26", "name:en": "Seri Thai 26", "amenity": "ferry_terminal", "building": null, "port": null, "operator:type": null, "addr:full": null, "addr:city": null, "source": null, "name:th": "เสรีไทย 26", "osm_id": 9758722602, "osm_type": "nodes" }, "geometry": { "type": "Point", "coordinates": [ 100.6745504, 13.7807959 ] } },
{ "type": "Feature", "properties": { "name": "สุเหร่าแดง", "name:en": "Red Mosque Pier", "amenity": "ferry_terminal", "building": null, "port": null, "operator:type": null, "addr:full": null, "addr:city": null, "source": null, "name:th": "สุเหร่าแดง", "osm_id": 9758722610, "osm_type": "nodes" }, "geometry": { "type": "Point", "coordinates": [ 100.6892481, 13.7888569 ] } },
{ "type": "Feature", "properties": { "name": "ท่าเรือไปวัดติโลกอาราม", "name:en": "Pier to Wat Tilok Aram", "amenity": "ferry_terminal", "building": null, "port": null, "operator:type": null, "addr:full": null, "addr:city": null, "source": null, "name:th": null, "osm_id": 3928844493, "osm_type": "nodes" }, "geometry": { "type": "Point", "coordinates": [ 99.9002586, 19.162829 ] } },
{ "type": "Feature", "properties": { "name": "Seri Thai 16", "name:en": null, "amenity": "ferry_terminal", "building": null, "port": null, "operator:type": null, "addr:full": null, "addr:city": null, "source": null, "name:th": null, "osm_id": 12616016860, "osm_type": "nodes" }, "geometry": { "type": "Point", "coordinates": [ 100.6712175, 13.7789834 ] } },
{ "type": "Feature", "properties": { "name": null, "name:en": null, "amenity": "ferry_terminal", "building": null, "port": null, "operator:type": null, "addr:full": null, "addr:city": null, "source": null, "name:th": null, "osm_id": 12616016864, "osm_type": "nodes" }, "geometry": { "type": "Point", "coordinates": [ 100.6715048, 13.779176 ] } },
{ "type": "Feature", "properties": { "name": null, "name:en": null, "amenity": "ferry_terminal", "building": null, "port": null, "operator:type": null, "addr:full": null, "addr:city": null, "source": null, "name:th": null, "osm_id": 12616016866, "osm_type": "nodes" }, "geometry": { "type": "Point", "coordinates": [ 100.6715953, 13.7790449 ] } },
{ "type": "Feature", "properties": { "name": null, "name:en": "Daily Slow ferry 10am to Koh Phayam", "amenity": "ferry_terminal", "building": null, "port": null, "operator:type": null, "addr:full": null, "addr:city": null, "source": null, "name:th": null, "osm_id": 11810736270, "osm_type": "nodes" }, "geometry": { "type": "Point", "coordinates": [ 98.5922863, 9.9342332 ] } },
{ "type": "Feature", "properties": { "name": "Wat Lad Sanun Pier", "name:en": null, "amenity": "ferry_terminal", "building": null, "port": null, "operator:type": null, "addr:full": null, "addr:city": null, "source": null, "name:th": "ท่าเรือวัดลาดสนุ่น", "osm_id": 11264893194, "osm_type": "nodes" }, "geometry": { "type": "Point", "coordinates": [ 100.6357097, 13.9599829 ] } },
{ "type": "Feature", "properties": { "name": "ท่าเรือมารีน่า", "name:en": "Marina Pier", "amenity": "ferry_terminal", "building": null, "port": null, "operator:type": null, "addr:full": null, "addr:city": null, "source": null, "name:th": "ท่าเรือมารีน่า", "osm_id": 2502554722, "osm_type": "nodes" }, "geometry": { "type": "Point", "coordinates": [ 98.920713, 8.0557259 ] } },
{ "type": "Feature", "properties": { "name": "ท่าเรือคลองจิหลาด", "name:en": "Klong Jilad Pier", "amenity": "ferry_terminal", "building": null, "port": null, "operator:type": null, "addr:full": null, "addr:city": null, "source": null, "name:th": "ท่าเรือคลองจิหลาด", "osm_id": 260742650, "osm_type": "nodes" }, "geometry": { "type": "Point", "coordinates": [ 98.9058596, 8.0458536 ] } },
{ "type": "Feature", "properties": { "name": null, "name:en": null, "amenity": "ferry_terminal", "building": null, "port": null, "operator:type": null, "addr:full": null, "addr:city": null, "source": null, "name:th": null, "osm_id": 6084675125, "osm_type": "nodes" }, "geometry": { "type": "Point", "coordinates": [ 98.9235216, 8.0554346 ] } },
{ "type": "Feature", "properties": { "name": "ท่าเรือคงคา", "name:en": "Khong Kha Pier", "amenity": "ferry_terminal", "building": null, "port": null, "operator:type": null, "addr:full": null, "addr:city": null, "source": null, "name:th": "ท่าเรือคงคา", "osm_id": 10136632954, "osm_type": "nodes" }, "geometry": { "type": "Point", "coordinates": [ 98.9198738, 8.0619627 ] } },
{ "type": "Feature", "properties": { "name": "ท่าเรือสวนสาธารณะธารา", "name:en": "Thara Park Pier", "amenity": "ferry_terminal", "building": null, "port": null, "operator:type": null, "addr:full": null, "addr:city": null, "source": null, "name:th": "ท่าเรือสวนสาธารณะธารา", "osm_id": 10136700109, "osm_type": "nodes" }, "geometry": { "type": "Point", "coordinates": [ 98.9200207, 8.0533952 ] } },
{ "type": "Feature", "properties": { "name": "ท่าเรือหินขวาง", "name:en": "Hin Khwang Pier", "amenity": "ferry_terminal", "building": null, "port": null, "operator:type": null, "addr:full": null, "addr:city": null, "source": null, "name:th": "ท่าเรือหินขวาง", "osm_id": 10181649000, "osm_type": "nodes" }, "geometry": { "type": "Point", "coordinates": [ 98.9164684, 8.0964105 ] } },
{ "type": "Feature", "properties": { "name": null, "name:en": null, "amenity": "ferry_terminal", "building": null, "port": null, "operator:type": null, "addr:full": null, "addr:city": null, "source": null, "name:th": null, "osm_id": 2457772223, "osm_type": "nodes" }, "geometry": { "type": "Point", "coordinates": [ 98.8308266, 8.0180505 ] } },
{ "type": "Feature", "properties": { "name": "อ่าวน้ำเมา", "name:en": "Ao Nam Mao pier", "amenity": "ferry_terminal", "building": null, "port": null, "operator:type": null, "addr:full": null, "addr:city": null, "source": null, "name:th": "อ่าวน้ำเมา", "osm_id": 6126121289, "osm_type": "nodes" }, "geometry": { "type": "Point", "coordinates": [ 98.8632011, 8.028918 ] } },
{ "type": "Feature", "properties": { "name": "อ่าวน้ำเมา", "name:en": "Ao Nam Mao pier", "amenity": "ferry_terminal", "building": null, "port": null, "operator:type": null, "addr:full": null, "addr:city": null, "source": null, "name:th": "อ่าวน้ำเมา", "osm_id": 1286410591, "osm_type": "nodes" }, "geometry": { "type": "Point", "coordinates": [ 98.8625369, 8.0258472 ] } },
{ "type": "Feature", "properties": { "name": "อ่าวไร่เลย์", "name:en": "Railay", "amenity": "ferry_terminal", "building": null, "port": null, "operator:type": null, "addr:full": null, "addr:city": null, "source": null, "name:th": "อ่าวไร่เลย์", "osm_id": 7528655385, "osm_type": "nodes" }, "geometry": { "type": "Point", "coordinates": [ 98.8375834, 8.0112971 ] } },
{ "type": "Feature", "properties": { "name": "สี่พระยา", "name:en": "Si Phraya", "amenity": "ferry_terminal", "building": null, "port": null, "operator:type": null, "addr:full": null, "addr:city": null, "source": null, "name:th": "สี่พระยา", "osm_id": 1408509168, "osm_type": "nodes" }, "geometry": { "type": "Point", "coordinates": [ 100.5131062, 13.728416 ] } },
{ "type": "Feature", "properties": { "name": "Pak Meng Ferry Terminal", "name:en": null, "amenity": "ferry_terminal", "building": null, "port": null, "operator:type": null, "addr:full": null, "addr:city": null, "source": null, "name:th": null, "osm_id": 1583920427, "osm_type": "nodes" }, "geometry": { "type": "Point", "coordinates": [ 99.3107619, 7.5062005 ] } },
{ "type": "Feature", "properties": { "name": null, "name:en": null, "amenity": "ferry_terminal", "building": null, "port": null, "operator:type": null, "addr:full": null, "addr:city": null, "source": null, "name:th": null, "osm_id": 617259107, "osm_type": "nodes" }, "geometry": { "type": "Point", "coordinates": [ 99.2574596, 7.3119219 ] } },
{ "type": "Feature", "properties": { "name": "ท่าเรือหาดยาว", "name:en": "Haad Yao Pier", "amenity": "ferry_terminal", "building": null, "port": null, "operator:type": null, "addr:full": null, "addr:city": null, "source": null, "name:th": "ท่าเรือหาดยาว", "osm_id": 2457706088, "osm_type": "nodes" }, "geometry": { "type": "Point", "coordinates": [ 99.4021753, 7.311053 ] } },
{ "type": "Feature", "properties": { "name": null, "name:en": "Kuangtungku Pier", "amenity": "ferry_terminal", "building": null, "port": null, "operator:type": null, "addr:full": null, "addr:city": null, "source": null, "name:th": "ท่าเรือ ควนตุ้งกู", "osm_id": 617261192, "osm_type": "nodes" }, "geometry": { "type": "Point", "coordinates": [ 99.350732, 7.3905402 ] } },
{ "type": "Feature", "properties": { "name": "สงขลา", "name:en": "Songkhla", "amenity": "ferry_terminal", "building": null, "port": null, "operator:type": null, "addr:full": null, "addr:city": null, "source": null, "name:th": "สงขลา", "osm_id": 9374658808, "osm_type": "nodes" }, "geometry": { "type": "Point", "coordinates": [ 100.5718974, 7.2303253 ] } },
{ "type": "Feature", "properties": { "name": "ท่าเรือนางแอ่น", "name:en": "Nang An Pier", "amenity": "ferry_terminal", "building": null, "port": null, "operator:type": null, "addr:full": null, "addr:city": null, "source": null, "name:th": "ท่าเรือนางแอ่น", "osm_id": 2495732689, "osm_type": "nodes" }, "geometry": { "type": "Point", "coordinates": [ 98.7991121, 8.0499594 ] } },
{ "type": "Feature", "properties": { "name": "ท่าเรือนพรัตน์ธารา", "name:en": "Noppharat Thara Pier", "amenity": "ferry_terminal", "building": null, "port": null, "operator:type": null, "addr:full": null, "addr:city": null, "source": null, "name:th": "ท่าเรือนพรัตน์ธารา", "osm_id": 2495732193, "osm_type": "nodes" }, "geometry": { "type": "Point", "coordinates": [ 98.7984936, 8.0475797 ] } },
{ "type": "Feature", "properties": { "name": "ท่าเรืออ่าวสวนใหญ่", "name:en": "Ao Soun Yai Pier", "amenity": "ferry_terminal", "building": null, "port": null, "operator:type": null, "addr:full": null, "addr:city": null, "source": null, "name:th": "ท่าเรืออ่าวสวนใหญ่", "osm_id": 776289006, "osm_type": "nodes" }, "geometry": { "type": "Point", "coordinates": [ 102.4693581, 11.8254968 ] } },
{ "type": "Feature", "properties": { "name": "Tantawan Pier", "name:en": null, "amenity": "ferry_terminal", "building": null, "port": null, "operator:type": null, "addr:full": null, "addr:city": null, "source": null, "name:th": null, "osm_id": 2137546872, "osm_type": "nodes" }, "geometry": { "type": "Point", "coordinates": [ 102.4376478, 11.9549073 ] } },
{ "type": "Feature", "properties": { "name": "Lower Bang Chan Dam Pier", "name:en": null, "amenity": "ferry_terminal", "building": null, "port": null, "operator:type": null, "addr:full": null, "addr:city": null, "source": null, "name:th": null, "osm_id": 9758735118, "osm_type": "nodes" }, "geometry": { "type": "Point", "coordinates": [ 100.7042362, 13.7971962 ] } },
{ "type": "Feature", "properties": { "name": "Upper Bang Chan Dam Pier", "name:en": null, "amenity": "ferry_terminal", "building": null, "port": null, "operator:type": null, "addr:full": null, "addr:city": null, "source": null, "name:th": null, "osm_id": 9758735121, "osm_type": "nodes" }, "geometry": { "type": "Point", "coordinates": [ 100.7047798, 13.7975034 ] } },
{ "type": "Feature", "properties": { "name": "speed boat arrival (low season)", "name:en": "débarcadère speed boat (low season)", "amenity": "ferry_terminal", "building": null, "port": null, "operator:type": null, "addr:full": null, "addr:city": null, "source": null, "name:th": null, "osm_id": 5783703656, "osm_type": "nodes" }, "geometry": { "type": "Point", "coordinates": [ 99.3092281, 6.493001 ] } },
{ "type": "Feature", "properties": { "name": "หาดแหลมทอง", "name:en": null, "amenity": "ferry_terminal", "building": null, "port": null, "operator:type": null, "addr:full": null, "addr:city": null, "source": null, "name:th": "หาดแหลมทอง", "osm_id": 10728801933, "osm_type": "nodes" }, "geometry": { "type": "Point", "coordinates": [ 98.7632669, 7.7770955 ] } },
{ "type": "Feature", "properties": { "name": "วัดมหาบุศย์", "name:en": "Wat Maha But", "amenity": "ferry_terminal", "building": null, "port": null, "operator:type": null, "addr:full": null, "addr:city": null, "source": null, "name:th": "วัดมหาบุศย์", "osm_id": 7829305339, "osm_type": "nodes" }, "geometry": { "type": "Point", "coordinates": [ 100.6064481, 13.7150723 ] } },
{ "type": "Feature", "properties": { "name": null, "name:en": null, "amenity": "ferry_terminal", "building": null, "port": null, "operator:type": null, "addr:full": null, "addr:city": null, "source": null, "name:th": null, "osm_id": 7125713169, "osm_type": "nodes" }, "geometry": { "type": "Point", "coordinates": [ 102.0906228, 6.2364643 ] } },
{ "type": "Feature", "properties": { "name": null, "name:en": null, "amenity": "ferry_terminal", "building": null, "port": null, "operator:type": null, "addr:full": null, "addr:city": null, "source": null, "name:th": null, "osm_id": 2760019411, "osm_type": "nodes" }, "geometry": { "type": "Point", "coordinates": [ 102.0906164, 6.2363023 ] } },
{ "type": "Feature", "properties": { "name": "วัดยาง", "name:en": "Wat Yang", "amenity": "ferry_terminal", "building": null, "port": null, "operator:type": null, "addr:full": null, "addr:city": null, "source": null, "name:th": "วัดยาง", "osm_id": 7829305343, "osm_type": "nodes" }, "geometry": { "type": "Point", "coordinates": [ 100.6199897, 13.7112822 ] } },
{ "type": "Feature", "properties": { "name": "ตลาดเอี่ยมสมบัติ", "name:en": "Talat Iam Sombat", "amenity": "ferry_terminal", "building": null, "port": null, "operator:type": null, "addr:full": null, "addr:city": null, "source": null, "name:th": "ตลาดเอี่ยมสมบัติ", "osm_id": 7829305349, "osm_type": "nodes" }, "geometry": { "type": "Point", "coordinates": [ 100.642852, 13.7157798 ] } },
{ "type": "Feature", "properties": { "name": "สุเหร่าอัลกุ๊บรอ", "name:en": "Surao Al-Kubra", "amenity": "ferry_terminal", "building": null, "port": null, "operator:type": null, "addr:full": null, "addr:city": null, "source": null, "name:th": "สุเหร่าอัลกุ๊บรอ", "osm_id": 7829305374, "osm_type": "nodes" }, "geometry": { "type": "Point", "coordinates": [ 100.6284982, 13.7151987 ] } },
{ "type": "Feature", "properties": { "name": "Talat Minburi Pier", "name:en": null, "amenity": "ferry_terminal", "building": null, "port": null, "operator:type": null, "addr:full": null, "addr:city": null, "source": null, "name:th": null, "osm_id": 9758735123, "osm_type": "nodes" }, "geometry": { "type": "Point", "coordinates": [ 100.7290701, 13.8109446 ] } },
{ "type": "Feature", "properties": { "name": "ท่าเรือวัดขุนพรหม", "name:en": "Wat Khun Phrom Ferry Terminal", "amenity": "ferry_terminal", "building": null, "port": null, "operator:type": null, "addr:full": null, "addr:city": null, "source": null, "name:th": null, "osm_id": 7501363390, "osm_type": "nodes" }, "geometry": { "type": "Point", "coordinates": [ 100.5699311, 14.3468578 ] } },
{ "type": "Feature", "properties": { "name": "มศว ประสานมิตร", "name:en": "Prasanmit", "amenity": "ferry_terminal", "building": null, "port": null, "operator:type": null, "addr:full": null, "addr:city": null, "source": null, "name:th": "มศว ประสานมิตร", "osm_id": 566624462, "osm_type": "nodes" }, "geometry": { "type": "Point", "coordinates": [ 100.5657418, 13.74739 ] } },
{ "type": "Feature", "properties": { "name": "Songkhla Ferry", "name:en": null, "amenity": "ferry_terminal", "building": null, "port": null, "operator:type": null, "addr:full": null, "addr:city": null, "source": "GPS survey", "name:th": null, "osm_id": 985068445, "osm_type": "nodes" }, "geometry": { "type": "Point", "coordinates": [ 100.5797987, 7.2180744 ] } },
{ "type": "Feature", "properties": { "name": "Singhannakhon Ferry", "name:en": null, "amenity": "ferry_terminal", "building": null, "port": null, "operator:type": null, "addr:full": null, "addr:city": null, "source": "GPS survey", "name:th": null, "osm_id": 985068124, "osm_type": "nodes" }, "geometry": { "type": "Point", "coordinates": [ 100.5747577, 7.2210603 ] } },
{ "type": "Feature", "properties": { "name": "นานาชาติ", "name:en": "Nana Chard", "amenity": "ferry_terminal", "building": null, "port": null, "operator:type": null, "addr:full": null, "addr:city": null, "source": null, "name:th": "นานาชาติ", "osm_id": 566623226, "osm_type": "nodes" }, "geometry": { "type": "Point", "coordinates": [ 100.5591191, 13.7483267 ] } },
{ "type": "Feature", "properties": { "name": "บ้านพักข้าราชบริพารติวานนท์", "name:en": "Office Residence Tiwanon", "amenity": "ferry_terminal", "building": null, "port": null, "operator:type": null, "addr:full": null, "addr:city": null, "source": null, "name:th": "บ้านพักข้าราชบริพารติวานนท์", "osm_id": 7791237225, "osm_type": "nodes" }, "geometry": { "type": "Point", "coordinates": [ 100.4909799, 13.8980124 ] } },
{ "type": "Feature", "properties": { "name": "Koh Si Chang", "name:en": null, "amenity": "ferry_terminal", "building": null, "port": null, "operator:type": null, "addr:full": null, "addr:city": null, "source": null, "name:th": null, "osm_id": 4165123316, "osm_type": "nodes" }, "geometry": { "type": "Point", "coordinates": [ 100.8107842, 13.1618628 ] } },
{ "type": "Feature", "properties": { "name": "ท่าเรือเกาะลอย", "name:en": "Ko Loy Pier", "amenity": "ferry_terminal", "building": null, "port": null, "operator:type": null, "addr:full": null, "addr:city": null, "source": null, "name:th": null, "osm_id": 4666507805, "osm_type": "nodes" }, "geometry": { "type": "Point", "coordinates": [ 100.9192485, 13.1751969 ] } },
{ "type": "Feature", "properties": { "name": "ท่าน้ำนนทบุรี", "name:en": "Nonthaburi Pier", "amenity": "ferry_terminal", "building": null, "port": null, "operator:type": null, "addr:full": null, "addr:city": null, "source": null, "name:th": "ท่าน้ำนนทบุรี", "osm_id": 6158344590, "osm_type": "nodes" }, "geometry": { "type": "Point", "coordinates": [ 100.4910036, 13.8421696 ] } },
{ "type": "Feature", "properties": { "name": "ท่าเรือเทศบาลเมืองบางศรีเมือง", "name:en": "Bang Si Mueang Ferry Pier", "amenity": "ferry_terminal", "building": null, "port": null, "operator:type": null, "addr:full": null, "addr:city": null, "source": null, "name:th": "ท่าเรือเทศบาลเมืองบางศรีเมือง", "osm_id": 6549136021, "osm_type": "nodes" }, "geometry": { "type": "Point", "coordinates": [ 100.4892994, 13.8419006 ] } },
{ "type": "Feature", "properties": { "name": "ท่าเรือข้ามฟากท่าฉลอม", "name:en": null, "amenity": "ferry_terminal", "building": null, "port": null, "operator:type": null, "addr:full": null, "addr:city": null, "source": null, "name:th": null, "osm_id": 1183545590, "osm_type": "nodes" }, "geometry": { "type": "Point", "coordinates": [ 100.2745237, 13.5418352 ] } },
{ "type": "Feature", "properties": { "name": null, "name:en": null, "amenity": "ferry_terminal", "building": null, "port": null, "operator:type": null, "addr:full": null, "addr:city": null, "source": null, "name:th": null, "osm_id": 8703561545, "osm_type": "nodes" }, "geometry": { "type": "Point", "coordinates": [ 100.0772966, 15.3293895 ] } },
{ "type": "Feature", "properties": { "name": null, "name:en": null, "amenity": "ferry_terminal", "building": null, "port": null, "operator:type": null, "addr:full": null, "addr:city": null, "source": null, "name:th": null, "osm_id": 1572174557, "osm_type": "nodes" }, "geometry": { "type": "Point", "coordinates": [ 99.9462485, 13.4670647 ] } },
{ "type": "Feature", "properties": { "name": "ท่าเรือวัดระฆังฯ", "name:en": "Wat Rakhang Pier", "amenity": "ferry_terminal", "building": null, "port": null, "operator:type": null, "addr:full": null, "addr:city": null, "source": null, "name:th": null, "osm_id": 2993468033, "osm_type": "nodes" }, "geometry": { "type": "Point", "coordinates": [ 100.486708, 13.7525131 ] } },
{ "type": "Feature", "properties": { "name": "เพชรเกษม 37", "name:en": "Phetchakasem 37", "amenity": "ferry_terminal", "building": null, "port": null, "operator:type": null, "addr:full": null, "addr:city": null, "source": null, "name:th": "เพชรเกษม 37", "osm_id": 7829305301, "osm_type": "nodes" }, "geometry": { "type": "Point", "coordinates": [ 100.4311793, 13.7091445 ] } },
{ "type": "Feature", "properties": { "name": "เกษตรบางแค", "name:en": "Kaset Bang Khae", "amenity": "ferry_terminal", "building": null, "port": null, "operator:type": null, "addr:full": null, "addr:city": null, "source": null, "name:th": "เกษตรบางแค", "osm_id": 7829305304, "osm_type": "nodes" }, "geometry": { "type": "Point", "coordinates": [ 100.4211857, 13.7056321 ] } },
{ "type": "Feature", "properties": { "name": null, "name:en": null, "amenity": "ferry_terminal", "building": null, "port": null, "operator:type": null, "addr:full": null, "addr:city": null, "source": null, "name:th": null, "osm_id": 1347311839, "osm_type": "nodes" }, "geometry": { "type": "Point", "coordinates": [ 99.9963405, 13.407843 ] } },
{ "type": "Feature", "properties": { "name": "ท่าเรือสาทร", "name:en": "Sathon Pier", "amenity": "ferry_terminal", "building": null, "port": null, "operator:type": null, "addr:full": null, "addr:city": null, "source": null, "name:th": "ท่าเรือสาทร", "osm_id": 7829320712, "osm_type": "nodes" }, "geometry": { "type": "Point", "coordinates": [ 100.5128954, 13.7193143 ] } },
{ "type": "Feature", "properties": { "name": null, "name:en": null, "amenity": "ferry_terminal", "building": null, "port": null, "operator:type": null, "addr:full": null, "addr:city": null, "source": null, "name:th": null, "osm_id": 1825494257, "osm_type": "nodes" }, "geometry": { "type": "Point", "coordinates": [ 99.9509535, 9.3737431 ] } },
{ "type": "Feature", "properties": { "name": "สะพานประชารัฐ", "name:en": "Saphan Pracharat", "amenity": "ferry_terminal", "building": null, "port": null, "operator:type": null, "addr:full": null, "addr:city": null, "source": null, "name:th": "สะพานประชารัฐ", "osm_id": 7829305293, "osm_type": "nodes" }, "geometry": { "type": "Point", "coordinates": [ 100.4630925, 13.7203967 ] } },
{ "type": "Feature", "properties": { "name": "ประตูน้ำภาษีเจริญ", "name:en": "Pratunam Phasi Charoen", "amenity": "ferry_terminal", "building": null, "port": null, "operator:type": null, "addr:full": null, "addr:city": null, "source": null, "name:th": "ประตูน้ำภาษีเจริญ", "osm_id": 7829305295, "osm_type": "nodes" }, "geometry": { "type": "Point", "coordinates": [ 100.4681348, 13.7221535 ] } },
{ "type": "Feature", "properties": { "name": "ท่าเรือช่องนนทรี", "name:en": "Chong Nonsi Pier", "amenity": "ferry_terminal", "building": null, "port": null, "operator:type": null, "addr:full": null, "addr:city": null, "source": null, "name:th": null, "osm_id": 2331436115, "osm_type": "nodes" }, "geometry": { "type": "Point", "coordinates": [ 100.5503294, 13.6909014 ] } },
{ "type": "Feature", "properties": { "name": "บางกะปิ", "name:en": "Bangkapi", "amenity": "ferry_terminal", "building": null, "port": null, "operator:type": null, "addr:full": null, "addr:city": null, "source": null, "name:th": "บางกะปิ", "osm_id": 2339057520, "osm_type": "nodes" }, "geometry": { "type": "Point", "coordinates": [ 100.6473896, 13.7650322 ] } },
{ "type": "Feature", "properties": { "name": "ท่าเรือคลองลัดโพธิ์", "name:en": "Khlong Lat Pho Pier", "amenity": "ferry_terminal", "building": null, "port": null, "operator:type": null, "addr:full": null, "addr:city": null, "source": null, "name:th": null, "osm_id": 4561417665, "osm_type": "nodes" }, "geometry": { "type": "Point", "coordinates": [ 100.5387609, 13.6678718 ] } },
{ "type": "Feature", "properties": { "name": "Laem Sok Pier", "name:en": null, "amenity": "ferry_terminal", "building": null, "port": null, "operator:type": null, "addr:full": null, "addr:city": null, "source": null, "name:th": null, "osm_id": 9137422924, "osm_type": "nodes" }, "geometry": { "type": "Point", "coordinates": [ 102.5881279, 12.0362894 ] } },
{ "type": "Feature", "properties": { "name": "Boonsiri ferry", "name:en": null, "amenity": "ferry_terminal", "building": null, "port": null, "operator:type": null, "addr:full": null, "addr:city": null, "source": null, "name:th": null, "osm_id": 3951674447, "osm_type": "nodes" }, "geometry": { "type": "Point", "coordinates": [ 102.5873572, 12.0464802 ] } },
{ "type": "Feature", "properties": { "name": "ท่าเรือสี่พระยา (ประตู 2)", "name:en": "Si Phraya Pier (Gate 2)", "amenity": "ferry_terminal", "building": null, "port": null, "operator:type": null, "addr:full": null, "addr:city": null, "source": null, "name:th": "ท่าเรือสี่พระยา (ประตู 2)", "osm_id": 10726384742, "osm_type": "nodes" }, "geometry": { "type": "Point", "coordinates": [ 100.5129272, 13.729504 ] } },
{ "type": "Feature", "properties": { "name": null, "name:en": "Raja Ferry Donsak Pier", "amenity": "ferry_terminal", "building": null, "port": null, "operator:type": null, "addr:full": null, "addr:city": null, "source": null, "name:th": null, "osm_id": 4704126649, "osm_type": "nodes" }, "geometry": { "type": "Point", "coordinates": [ 99.7449648, 9.3291555 ] } },
{ "type": "Feature", "properties": { "name": "ซีทราน เฟอรี่", "name:en": "Seatran Donsak Pier", "amenity": "ferry_terminal", "building": null, "port": null, "operator:type": null, "addr:full": null, "addr:city": null, "source": null, "name:th": null, "osm_id": 2467337505, "osm_type": "nodes" }, "geometry": { "type": "Point", "coordinates": [ 99.734259, 9.3219079 ] } },
{ "type": "Feature", "properties": { "name": "สะพานเจริญผล", "name:en": "Sapan Charoenpol", "amenity": "ferry_terminal", "building": null, "port": null, "operator:type": null, "addr:full": null, "addr:city": null, "source": null, "name:th": "สะพานเจริญผล", "osm_id": 567013469, "osm_type": "nodes" }, "geometry": { "type": "Point", "coordinates": [ 100.5243125, 13.7498204 ] } },
{ "type": "Feature", "properties": { "name": "บางหว้า", "name:en": "Bang Wa", "amenity": "ferry_terminal", "building": null, "port": null, "operator:type": null, "addr:full": null, "addr:city": null, "source": null, "name:th": "บางหว้า", "osm_id": 6548920526, "osm_type": "nodes" }, "geometry": { "type": "Point", "coordinates": [ 100.45815, 13.7187206 ] } },
{ "type": "Feature", "properties": { "name": "Sattahip", "name:en": null, "amenity": "ferry_terminal", "building": null, "port": null, "operator:type": null, "addr:full": null, "addr:city": null, "source": null, "name:th": null, "osm_id": 9374658815, "osm_type": "nodes" }, "geometry": { "type": "Point", "coordinates": [ 100.9147336, 12.6281004 ] } },
{ "type": "Feature", "properties": { "name": "ท่าเรือ จเด็จ", "name:en": "Jadet Pier", "amenity": "ferry_terminal", "building": null, "port": null, "operator:type": null, "addr:full": null, "addr:city": null, "source": null, "name:th": "ท่าเรือ จเด็จ", "osm_id": 2078709485, "osm_type": "nodes" }, "geometry": { "type": "Point", "coordinates": [ 101.4386266, 12.6239774 ] } },
{ "type": "Feature", "properties": { "name": "Taruhphe Pier", "name:en": null, "amenity": "ferry_terminal", "building": null, "port": null, "operator:type": null, "addr:full": null, "addr:city": null, "source": null, "name:th": null, "osm_id": 2078709686, "osm_type": "nodes" }, "geometry": { "type": "Point", "coordinates": [ 101.4394726, 12.6258074 ] } },
{ "type": "Feature", "properties": { "name": null, "name:en": null, "amenity": "ferry_terminal", "building": null, "port": null, "operator:type": null, "addr:full": null, "addr:city": null, "source": null, "name:th": null, "osm_id": 6084317401, "osm_type": "nodes" }, "geometry": { "type": "Point", "coordinates": [ 98.9529991, 8.0068422 ] } },
{ "type": "Feature", "properties": { "name": "Tha Centrepoint Pier", "name:en": "Center Point Pier", "amenity": "ferry_terminal", "building": null, "port": null, "operator:type": null, "addr:full": null, "addr:city": null, "source": null, "name:th": null, "osm_id": 307385609, "osm_type": "nodes" }, "geometry": { "type": "Point", "coordinates": [ 102.3676157, 12.1890886 ] } },
{ "type": "Feature", "properties": { "name": "Tan Mayom Pier", "name:en": null, "amenity": "ferry_terminal", "building": null, "port": null, "operator:type": null, "addr:full": null, "addr:city": null, "source": null, "name:th": null, "osm_id": 2507794747, "osm_type": "nodes" }, "geometry": { "type": "Point", "coordinates": [ 102.3568857, 12.1099759 ] } },
{ "type": "Feature", "properties": { "name": null, "name:en": null, "amenity": "ferry_terminal", "building": null, "port": null, "operator:type": null, "addr:full": null, "addr:city": null, "source": null, "name:th": null, "osm_id": 776289058, "osm_type": "nodes" }, "geometry": { "type": "Point", "coordinates": [ 102.4023743, 11.9054012 ] } },
{ "type": "Feature", "properties": { "name": null, "name:en": null, "amenity": "ferry_terminal", "building": null, "port": null, "operator:type": null, "addr:full": null, "addr:city": null, "source": null, "name:th": null, "osm_id": 3951674449, "osm_type": "nodes" }, "geometry": { "type": "Point", "coordinates": [ 102.584825, 12.0631515 ] } },
{ "type": "Feature", "properties": { "name": "ท่าเรือข้ามฟากบางศรีเมือง", "name:en": "Bang Si Mueang Ferry Pier", "amenity": "ferry_terminal", "building": null, "port": null, "operator:type": null, "addr:full": null, "addr:city": null, "source": null, "name:th": "ท่าเรือข้ามฟากบางศรีเมือง", "osm_id": 6158336920, "osm_type": "nodes" }, "geometry": { "type": "Point", "coordinates": [ 100.4892735, 13.8418947 ] } },
{ "type": "Feature", "properties": { "name": "ท่าเรือ​ไก่แบ้", "name:en": "Kai Bae Pier", "amenity": "ferry_terminal", "building": null, "port": null, "operator:type": null, "addr:full": null, "addr:city": null, "source": null, "name:th": null, "osm_id": 2384404974, "osm_type": "nodes" }, "geometry": { "type": "Point", "coordinates": [ 102.2897154, 12.0280018 ] } },
{ "type": "Feature", "properties": { "name": "Ko Panyi Pier", "name:en": null, "amenity": "ferry_terminal", "building": null, "port": null, "operator:type": null, "addr:full": null, "addr:city": null, "source": null, "name:th": null, "osm_id": 4783083773, "osm_type": "nodes" }, "geometry": { "type": "Point", "coordinates": [ 98.5047759, 8.3355323 ] } },
{ "type": "Feature", "properties": { "name": "Haad Rin Queen Big Buddha Pier", "name:en": null, "amenity": "ferry_terminal", "building": null, "port": null, "operator:type": null, "addr:full": null, "addr:city": null, "source": null, "name:th": null, "osm_id": 416617359, "osm_type": "nodes" }, "geometry": { "type": "Point", "coordinates": [ 100.0554846, 9.559602 ] } },
{ "type": "Feature", "properties": { "name": null, "name:en": "Haad Rin Mae Nam Pier", "amenity": "ferry_terminal", "building": null, "port": null, "operator:type": null, "addr:full": null, "addr:city": null, "source": "Bing", "name:th": null, "osm_id": 1619706319, "osm_type": "nodes" }, "geometry": { "type": "Point", "coordinates": [ 99.9975265, 9.5715544 ] } },
{ "type": "Feature", "properties": { "name": null, "name:en": null, "amenity": "ferry_terminal", "building": null, "port": null, "operator:type": null, "addr:full": null, "addr:city": null, "source": null, "name:th": null, "osm_id": 2500397728, "osm_type": "nodes" }, "geometry": { "type": "Point", "coordinates": [ 98.5480758, 9.9519966 ] } },
{ "type": "Feature", "properties": { "name": "Lamtaen Ferry", "name:en": null, "amenity": "ferry_terminal", "building": null, "port": null, "operator:type": null, "addr:full": null, "addr:city": null, "source": null, "name:th": null, "osm_id": 7176742669, "osm_type": "nodes" }, "geometry": { "type": "Point", "coordinates": [ 100.0573134, 9.5593701 ] } },
{ "type": "Feature", "properties": { "name": "Thong Nai Pan Express", "name:en": null, "amenity": "ferry_terminal", "building": null, "port": null, "operator:type": null, "addr:full": null, "addr:city": null, "source": null, "name:th": null, "osm_id": 2518618955, "osm_type": "nodes" }, "geometry": { "type": "Point", "coordinates": [ 100.0682442, 9.6758904 ] } },
{ "type": "Feature", "properties": { "name": "ท่าเทียบเรืออ่าวนิด", "name:en": "fishing pier", "amenity": "ferry_terminal", "building": null, "port": null, "operator:type": null, "addr:full": null, "addr:city": null, "source": null, "name:th": null, "osm_id": 1218765469, "osm_type": "nodes" }, "geometry": { "type": "Point", "coordinates": [ 102.4883241, 11.8039344 ] } },
{ "type": "Feature", "properties": { "name": "Makathanee Pier", "name:en": null, "amenity": "ferry_terminal", "building": null, "port": null, "operator:type": null, "addr:full": null, "addr:city": null, "source": null, "name:th": null, "osm_id": 2609803948, "osm_type": "nodes" }, "geometry": { "type": "Point", "coordinates": [ 102.4622075, 11.8130279 ] } },
{ "type": "Feature", "properties": { "name": "ท่าเรือตลิ่งชัน", "name:en": "Taling Chan Pier", "amenity": "ferry_terminal", "building": null, "port": null, "operator:type": null, "addr:full": null, "addr:city": null, "source": null, "name:th": null, "osm_id": 2618522299, "osm_type": "nodes" }, "geometry": { "type": "Point", "coordinates": [ 100.4563684, 13.7758001 ] } },
{ "type": "Feature", "properties": { "name": "วัดสร้อยทอง", "name:en": "Wat Soi Thong", "amenity": "ferry_terminal", "building": null, "port": null, "operator:type": null, "addr:full": null, "addr:city": null, "source": null, "name:th": "วัดสร้อยทอง", "osm_id": 5818119896, "osm_type": "nodes" }, "geometry": { "type": "Point", "coordinates": [ 100.517481, 13.8120953 ] } },
{ "type": "Feature", "properties": { "name": "พระราม 7", "name:en": "Rama 7 Bridge", "amenity": "ferry_terminal", "building": null, "port": null, "operator:type": null, "addr:full": null, "addr:city": null, "source": null, "name:th": "พระราม 7", "osm_id": 1408337608, "osm_type": "nodes" }, "geometry": { "type": "Point", "coordinates": [ 100.5134899, 13.8130256 ] } },
{ "type": "Feature", "properties": { "name": "ชุมชนคลองเจ็ดขนัด", "name:en": "Chumchon Khlong Chet Khanat", "amenity": "ferry_terminal", "building": null, "port": null, "operator:type": null, "addr:full": null, "addr:city": null, "source": null, "name:th": "ชุมชนคลองเจ็ดขนัด", "osm_id": 7829305342, "osm_type": "nodes" }, "geometry": { "type": "Point", "coordinates": [ 100.6156611, 13.7105926 ] } },
{ "type": "Feature", "properties": { "name": "ประตูน้ำ", "name:en": "Pratunam", "amenity": "ferry_terminal", "building": null, "port": null, "operator:type": null, "addr:full": null, "addr:city": null, "source": null, "name:th": "ประตูน้ำ", "osm_id": 567014528, "osm_type": "nodes" }, "geometry": { "type": "Point", "coordinates": [ 100.541208, 13.7493879 ] } },
{ "type": "Feature", "properties": { "name": "ประตูน้ำ", "name:en": "Pratunam", "amenity": "ferry_terminal", "building": null, "port": null, "operator:type": null, "addr:full": null, "addr:city": null, "source": null, "name:th": "ประตูน้ำ", "osm_id": 2321695930, "osm_type": "nodes" }, "geometry": { "type": "Point", "coordinates": [ 100.5412037, 13.7492624 ] } },
{ "type": "Feature", "properties": { "name": null, "name:en": null, "amenity": "ferry_terminal", "building": null, "port": null, "operator:type": null, "addr:full": null, "addr:city": null, "source": null, "name:th": null, "osm_id": 776288678, "osm_type": "nodes" }, "geometry": { "type": "Point", "coordinates": [ 102.5707545, 11.7073508 ] } },
{ "type": "Feature", "properties": { "name": null, "name:en": null, "amenity": "ferry_terminal", "building": null, "port": null, "operator:type": null, "addr:full": null, "addr:city": null, "source": null, "name:th": null, "osm_id": 3720140504, "osm_type": "nodes" }, "geometry": { "type": "Point", "coordinates": [ 99.3031994, 6.4869286 ] } },
{ "type": "Feature", "properties": { "name": "Speedboat Pier", "name:en": null, "amenity": "ferry_terminal", "building": null, "port": null, "operator:type": null, "addr:full": null, "addr:city": null, "source": null, "name:th": null, "osm_id": 2599146972, "osm_type": "nodes" }, "geometry": { "type": "Point", "coordinates": [ 102.5350494, 11.6122935 ] } },
{ "type": "Feature", "properties": { "name": "Tammalang Pier", "name:en": null, "amenity": "ferry_terminal", "building": null, "port": null, "operator:type": null, "addr:full": null, "addr:city": null, "source": null, "name:th": "Tammalang Pier Паром на Лангкави", "osm_id": 2508186670, "osm_type": "nodes" }, "geometry": { "type": "Point", "coordinates": [ 100.0689898, 6.5334263 ] } },
{ "type": "Feature", "properties": { "name": "พรานนก", "name:en": "Prannok", "amenity": "ferry_terminal", "building": null, "port": null, "operator:type": null, "addr:full": null, "addr:city": null, "source": null, "name:th": "พรานนก", "osm_id": 3053005368, "osm_type": "nodes" }, "geometry": { "type": "Point", "coordinates": [ 100.4868725, 13.7563104 ] } },
{ "type": "Feature", "properties": { "name": "Raft Crossing", "name:en": null, "amenity": "ferry_terminal", "building": null, "port": null, "operator:type": null, "addr:full": null, "addr:city": null, "source": null, "name:th": null, "osm_id": 2292085840, "osm_type": "nodes" }, "geometry": { "type": "Point", "coordinates": [ 98.5635331, 15.6462098 ] } },
{ "type": "Feature", "properties": { "name": "ท่าเรือบางกะเจ้า", "name:en": "Bang Kachao Pier", "amenity": "ferry_terminal", "building": null, "port": null, "operator:type": null, "addr:full": null, "addr:city": null, "source": null, "name:th": null, "osm_id": 487075704, "osm_type": "nodes" }, "geometry": { "type": "Point", "coordinates": [ 100.5628107, 13.704289 ] } },
{ "type": "Feature", "properties": { "name": "ท่าเรือคลองลัดหลวง", "name:en": "Khlong Lat Luang Pier", "amenity": "ferry_terminal", "building": null, "port": null, "operator:type": null, "addr:full": null, "addr:city": null, "source": null, "name:th": null, "osm_id": 2393548001, "osm_type": "nodes" }, "geometry": { "type": "Point", "coordinates": [ 100.5277363, 13.6697957 ] } },
{ "type": "Feature", "properties": { "name": "ท่าเรือพระสมุทรเจดีย์", "name:en": "Phra Samut Chedi Pier", "amenity": "ferry_terminal", "building": null, "port": null, "operator:type": null, "addr:full": null, "addr:city": null, "source": null, "name:th": "ท่าเรือพระสมุทรเจดีย์", "osm_id": 3667972113, "osm_type": "nodes" }, "geometry": { "type": "Point", "coordinates": [ 100.5865555, 13.5971751 ] } },
{ "type": "Feature", "properties": { "name": "ท่าเรือวัดคลองเตยนอก", "name:en": "Wat Khlong Toei Nok Pier", "amenity": "ferry_terminal", "building": null, "port": null, "operator:type": null, "addr:full": null, "addr:city": null, "source": null, "name:th": null, "osm_id": 4801299808, "osm_type": "nodes" }, "geometry": { "type": "Point", "coordinates": [ 100.5635823, 13.7072028 ] } },