{
"type": "FeatureCollection",
"name": "hotosm_tls_airports_points_geojson",
"features": [
{ "type": "Feature", "properties": { "name": "Aeroporto de Atauro", "name:en": null, "aeroway": "aerodrome", "building": null, "emergency": null, "emergency:helipad": null, "operator:type": null, "capacity:persons": null, "addr:full": null, "addr:city": null, "source": "ourairports.com", "name:pt": null, "name:tet": null, "osm_id": 1042092925, "osm_type": "nodes" }, "geometry": { "type": "Point", "coordinates": [ 125.6066862, -8.2435667 ] } },
{ "type": "Feature", "properties": { "name": "Kon Airport", "name:en": null, "aeroway": "aerodrome", "building": null, "emergency": null, "emergency:helipad": null, "operator:type": null, "capacity:persons": null, "addr:full": null, "addr:city": null, "source": "ourairports.com", "name:pt": null, "name:tet": null, "osm_id": 1042044874, "osm_type": "nodes" }, "geometry": { "type": "Point", "coordinates": [ 127.0500031, -8.3500004 ] } },
{ "type": "Feature", "properties": { "name": null, "name:en": null, "aeroway": "gate", "building": null, "emergency": null, "emergency:helipad": null, "operator:type": null, "capacity:persons": null, "addr:full": null, "addr:city": null, "source": null, "name:pt": null, "name:tet": null, "osm_id": 4705921821, "osm_type": "nodes" }, "geometry": { "type": "Point", "coordinates": [ 126.3974704, -8.4792842 ] } },
{ "type": "Feature", "properties": { "name": null, "name:en": null, "aeroway": "holding_position", "building": null, "emergency": null, "emergency:helipad": null, "operator:type": null, "capacity:persons": null, "addr:full": null, "addr:city": null, "source": null, "name:pt": null, "name:tet": null, "osm_id": 8236929276, "osm_type": "nodes" }, "geometry": { "type": "Point", "coordinates": [ 125.5236375, -8.5475837 ] } },
{ "type": "Feature", "properties": { "name": null, "name:en": null, "aeroway": "holding_position", "building": null, "emergency": null, "emergency:helipad": null, "operator:type": null, "capacity:persons": null, "addr:full": null, "addr:city": null, "source": null, "name:pt": null, "name:tet": null, "osm_id": 8236929275, "osm_type": "nodes" }, "geometry": { "type": "Point", "coordinates": [ 125.518316, -8.548398 ] } },
{ "type": "Feature", "properties": { "name": "Dili City Heliport", "name:en": null, "aeroway": "helipad", "building": null, "emergency": null, "emergency:helipad": null, "operator:type": null, "capacity:persons": null, "addr:full": null, "addr:city": null, "source": "ourairports.com", "name:pt": null, "name:tet": null, "osm_id": 1042153439, "osm_type": "nodes" }, "geometry": { "type": "Point", "coordinates": [ 125.5370026, -8.559 ] } },
{ "type": "Feature", "properties": { "name": null, "name:en": null, "aeroway": "helipad", "building": null, "emergency": null, "emergency:helipad": null, "operator:type": null, "capacity:persons": null, "addr:full": null, "addr:city": null, "source": null, "name:pt": null, "name:tet": null, "osm_id": 1453721941, "osm_type": "nodes" }, "geometry": { "type": "Point", "coordinates": [ 125.2761427, -9.3516661 ] } },
{ "type": "Feature", "properties": { "name": null, "name:en": null, "aeroway": "holding_position", "building": null, "emergency": null, "emergency:helipad": null, "operator:type": null, "capacity:persons": null, "addr:full": null, "addr:city": null, "source": null, "name:pt": null, "name:tet": null, "osm_id": 12216589355, "osm_type": "nodes" }, "geometry": { "type": "Point", "coordinates": [ 124.3390708, -9.1989598 ] } },
{ "type": "Feature", "properties": { "name": null, "name:en": null, "aeroway": "holding_position", "building": null, "emergency": null, "emergency:helipad": null, "operator:type": null, "capacity:persons": null, "addr:full": null, "addr:city": null, "source": null, "name:pt": null, "name:tet": null, "osm_id": 12216589356, "osm_type": "nodes" }, "geometry": { "type": "Point", "coordinates": [ 124.3424258, -9.1987765 ] } }
]
}
