{
"type": "FeatureCollection",
"name": "hotosm_idn_sea_ports_points_geojson",
"features": [
{ "type": "Feature", "properties": { "name": "Dermaga 7 Eksekutif", "name:en": null, "amenity": "ferry_terminal", "building": null, "port": null, "operator:type": null, "addr:full": null, "addr:city": null, "source": null, "name:id": null, "osm_id": 5247798171, "osm_type": "nodes" }, "geometry": { "type": "Point", "coordinates": [ 105.7572996, -5.8663422 ] } },
{ "type": "Feature", "properties": { "name": "Penyeberangan Jateng - Jabar", "name:en": null, "amenity": "ferry_terminal", "building": null, "port": null, "operator:type": null, "addr:full": null, "addr:city": null, "source": null, "name:id": null, "osm_id": 5892503887, "osm_type": "nodes" }, "geometry": { "type": "Point", "coordinates": [ 108.6981337, -7.4029822 ] } },
{ "type": "Feature", "properties": { "name": "Dermaga Tenggara", "name:en": null, "amenity": "ferry_terminal", "building": null, "port": null, "operator:type": null, "addr:full": null, "addr:city": null, "source": null, "name:id": null, "osm_id": 10008256973, "osm_type": "nodes" }, "geometry": { "type": "Point", "coordinates": [ 126.5831142, 5.5491948 ] } },
{ "type": "Feature", "properties": { "name": "Dermaga 1", "name:en": null, "amenity": "ferry_terminal", "building": null, "port": null, "operator:type": null, "addr:full": null, "addr:city": null, "source": null, "name:id": null, "osm_id": 5247798163, "osm_type": "nodes" }, "geometry": { "type": "Point", "coordinates": [ 105.756999, -5.8673235 ] } },
{ "type": "Feature", "properties": { "name": null, "name:en": null, "amenity": "ferry_terminal", "building": null, "port": null, "operator:type": null, "addr:full": null, "addr:city": null, "source": null, "name:id": null, "osm_id": 3139867209, "osm_type": "nodes" }, "geometry": { "type": "Point", "coordinates": [ 122.8331623, -4.143019 ] } },
{ "type": "Feature", "properties": { "name": null, "name:en": null, "amenity": "ferry_terminal", "building": null, "port": null, "operator:type": null, "addr:full": null, "addr:city": null, "source": null, "name:id": null, "osm_id": 3139902465, "osm_type": "nodes" }, "geometry": { "type": "Point", "coordinates": [ 122.8948821, -4.3326507 ] } },
{ "type": "Feature", "properties": { "name": "Ferry Port", "name:en": null, "amenity": "ferry_terminal", "building": null, "port": null, "operator:type": null, "addr:full": null, "addr:city": null, "source": null, "name:id": null, "osm_id": 4934114382, "osm_type": "nodes" }, "geometry": { "type": "Point", "coordinates": [ 122.0560687, -0.272129 ] } },
{ "type": "Feature", "properties": { "name": null, "name:en": null, "amenity": "ferry_terminal", "building": null, "port": null, "operator:type": null, "addr:full": null, "addr:city": null, "source": null, "name:id": null, "osm_id": 7538605809, "osm_type": "nodes" }, "geometry": { "type": "Point", "coordinates": [ 103.967158, -1.458234 ] } },
{ "type": "Feature", "properties": { "name": null, "name:en": null, "amenity": "ferry_terminal", "building": null, "port": null, "operator:type": null, "addr:full": null, "addr:city": null, "source": null, "name:id": null, "osm_id": 6296701648, "osm_type": "nodes" }, "geometry": { "type": "Point", "coordinates": [ 101.1713585, 0.371052 ] } },
{ "type": "Feature", "properties": { "name": null, "name:en": null, "amenity": "ferry_terminal", "building": null, "port": null, "operator:type": null, "addr:full": null, "addr:city": null, "source": null, "name:id": null, "osm_id": 6415169893, "osm_type": "nodes" }, "geometry": { "type": "Point", "coordinates": [ 102.8520342, -2.6834167 ] } },
{ "type": "Feature", "properties": { "name": null, "name:en": null, "amenity": "ferry_terminal", "building": null, "port": null, "operator:type": null, "addr:full": null, "addr:city": null, "source": null, "name:id": null, "osm_id": 6415170128, "osm_type": "nodes" }, "geometry": { "type": "Point", "coordinates": [ 102.8524269, -2.6830036 ] } },
{ "type": "Feature", "properties": { "name": null, "name:en": null, "amenity": "ferry_terminal", "building": null, "port": null, "operator:type": null, "addr:full": null, "addr:city": null, "source": null, "name:id": null, "osm_id": 7732270727, "osm_type": "nodes" }, "geometry": { "type": "Point", "coordinates": [ 116.5686386, -0.2401119 ] } },
{ "type": "Feature", "properties": { "name": "Pelabuhan ferry Melonguane", "name:en": "Melonguane ferry port", "amenity": "ferry_terminal", "building": null, "port": null, "operator:type": null, "addr:full": null, "addr:city": null, "source": null, "name:id": null, "osm_id": 9509470934, "osm_type": "nodes" }, "geometry": { "type": "Point", "coordinates": [ 126.680301, 3.9926876 ] } },
{ "type": "Feature", "properties": { "name": "Lirung", "name:en": null, "amenity": "ferry_terminal", "building": null, "port": null, "operator:type": null, "addr:full": null, "addr:city": null, "source": null, "name:id": null, "osm_id": 9598417006, "osm_type": "nodes" }, "geometry": { "type": "Point", "coordinates": [ 126.694855, 3.9400908 ] } },
{ "type": "Feature", "properties": { "name": "Melonguane", "name:en": null, "amenity": "ferry_terminal", "building": null, "port": null, "operator:type": null, "addr:full": null, "addr:city": null, "source": null, "name:id": null, "osm_id": 9598417005, "osm_type": "nodes" }, "geometry": { "type": "Point", "coordinates": [ 126.6759134, 3.9975554 ] } },
{ "type": "Feature", "properties": { "name": "Dermaga Barat Daya", "name:en": null, "amenity": "ferry_terminal", "building": null, "port": null, "operator:type": null, "addr:full": null, "addr:city": null, "source": null, "name:id": null, "osm_id": 10008256972, "osm_type": "nodes" }, "geometry": { "type": "Point", "coordinates": [ 126.576375, 5.5488536 ] } },
{ "type": "Feature", "properties": { "name": "Karatung", "name:en": null, "amenity": "ferry_terminal", "building": null, "port": null, "operator:type": null, "addr:full": null, "addr:city": null, "source": null, "name:id": null, "osm_id": 10008339225, "osm_type": "nodes" }, "geometry": { "type": "Point", "coordinates": [ 127.0887888, 4.7231852 ] } },
{ "type": "Feature", "properties": { "name": "Karatung", "name:en": null, "amenity": "ferry_terminal", "building": null, "port": null, "operator:type": null, "addr:full": null, "addr:city": null, "source": null, "name:id": null, "osm_id": 10008339230, "osm_type": "nodes" }, "geometry": { "type": "Point", "coordinates": [ 127.0884106, 4.7226354 ] } },
{ "type": "Feature", "properties": { "name": null, "name:en": null, "amenity": "ferry_terminal", "building": null, "port": null, "operator:type": null, "addr:full": null, "addr:city": null, "source": null, "name:id": null, "osm_id": 10704076939, "osm_type": "nodes" }, "geometry": { "type": "Point", "coordinates": [ 98.7461763, 2.7543757 ] } },
{ "type": "Feature", "properties": { "name": null, "name:en": null, "amenity": "ferry_terminal", "building": null, "port": null, "operator:type": null, "addr:full": null, "addr:city": null, "source": null, "name:id": null, "osm_id": 10704076971, "osm_type": "nodes" }, "geometry": { "type": "Point", "coordinates": [ 98.7891218, 2.7977651 ] } },
{ "type": "Feature", "properties": { "name": "Kupang Ferry Terminal", "name:en": null, "amenity": "ferry_terminal", "building": null, "port": null, "operator:type": null, "addr:full": null, "addr:city": null, "source": "GPS survey", "name:id": null, "osm_id": 1280640458, "osm_type": "nodes" }, "geometry": { "type": "Point", "coordinates": [ 123.5194507, -10.2194557 ] } },
{ "type": "Feature", "properties": { "name": "Bandar Bentan Telani", "name:en": null, "amenity": "ferry_terminal", "building": null, "port": null, "operator:type": null, "addr:full": null, "addr:city": null, "source": null, "name:id": null, "osm_id": 5250721798, "osm_type": "nodes" }, "geometry": { "type": "Point", "coordinates": [ 104.3201677, 1.1605006 ] } },
{ "type": "Feature", "properties": { "name": "Dermaga Handil II", "name:en": null, "amenity": "ferry_terminal", "building": null, "port": null, "operator:type": null, "addr:full": null, "addr:city": null, "source": null, "name:id": null, "osm_id": 7452500248, "osm_type": "nodes" }, "geometry": { "type": "Point", "coordinates": [ 117.2513284, -0.8267715 ] } },
{ "type": "Feature", "properties": { "name": null, "name:en": null, "amenity": "ferry_terminal", "building": null, "port": null, "operator:type": null, "addr:full": null, "addr:city": null, "source": null, "name:id": null, "osm_id": 3610259363, "osm_type": "nodes" }, "geometry": { "type": "Point", "coordinates": [ 114.8137458, -3.3506904 ] } },
{ "type": "Feature", "properties": { "name": "Sibolga", "name:en": null, "amenity": "ferry_terminal", "building": null, "port": null, "operator:type": null, "addr:full": null, "addr:city": null, "source": null, "name:id": null, "osm_id": 10675985204, "osm_type": "nodes" }, "geometry": { "type": "Point", "coordinates": [ 98.7903997, 1.7280631 ] } },
{ "type": "Feature", "properties": { "name": "Penyebrangan Ferry Tanjung", "name:en": null, "amenity": "ferry_terminal", "building": null, "port": null, "operator:type": null, "addr:full": null, "addr:city": null, "source": null, "name:id": null, "osm_id": 10688411911, "osm_type": "nodes" }, "geometry": { "type": "Point", "coordinates": [ 110.9034275, 0.0250044 ] } },
{ "type": "Feature", "properties": { "name": "Penyebrangan Klotok Madya", "name:en": null, "amenity": "ferry_terminal", "building": null, "port": null, "operator:type": null, "addr:full": null, "addr:city": null, "source": null, "name:id": null, "osm_id": 10048574638, "osm_type": "nodes" }, "geometry": { "type": "Point", "coordinates": [ 110.9031419, 0.0298625 ] } },
{ "type": "Feature", "properties": { "name": "Sebatik", "name:en": null, "amenity": "ferry_terminal", "building": null, "port": null, "operator:type": null, "addr:full": null, "addr:city": null, "source": null, "name:id": null, "osm_id": 8340645617, "osm_type": "nodes" }, "geometry": { "type": "Point", "coordinates": [ 117.7009765, 4.1518749 ] } },
{ "type": "Feature", "properties": { "name": null, "name:en": null, "amenity": "ferry_terminal", "building": null, "port": null, "operator:type": null, "addr:full": null, "addr:city": null, "source": null, "name:id": null, "osm_id": 5572675548, "osm_type": "nodes" }, "geometry": { "type": "Point", "coordinates": [ 117.5285081, 4.1592619 ] } },
{ "type": "Feature", "properties": { "name": null, "name:en": null, "amenity": "ferry_terminal", "building": null, "port": null, "operator:type": null, "addr:full": null, "addr:city": null, "source": null, "name:id": null, "osm_id": 5572675550, "osm_type": "nodes" }, "geometry": { "type": "Point", "coordinates": [ 117.5294076, 4.1594671 ] } },
{ "type": "Feature", "properties": { "name": null, "name:en": null, "amenity": "ferry_terminal", "building": null, "port": null, "operator:type": null, "addr:full": null, "addr:city": null, "source": null, "name:id": null, "osm_id": 5572675549, "osm_type": "nodes" }, "geometry": { "type": "Point", "coordinates": [ 117.5289551, 4.159607 ] } },
{ "type": "Feature", "properties": { "name": "Sei Menggaris", "name:en": null, "amenity": "ferry_terminal", "building": null, "port": null, "operator:type": null, "addr:full": null, "addr:city": null, "source": null, "name:id": null, "osm_id": 6382451580, "osm_type": "nodes" }, "geometry": { "type": "Point", "coordinates": [ 117.3177174, 4.1942305 ] } },
{ "type": "Feature", "properties": { "name": "Pelabuhan Feri Liang Bunyu", "name:en": null, "amenity": "ferry_terminal", "building": null, "port": null, "operator:type": null, "addr:full": null, "addr:city": null, "source": null, "name:id": null, "osm_id": 5862624670, "osm_type": "nodes" }, "geometry": { "type": "Point", "coordinates": [ 117.7529142, 4.1039158 ] } },
{ "type": "Feature", "properties": { "name": "Pelabuhan Sei Jepun", "name:en": null, "amenity": "ferry_terminal", "building": null, "port": null, "operator:type": null, "addr:full": null, "addr:city": null, "source": null, "name:id": null, "osm_id": 5961597355, "osm_type": "nodes" }, "geometry": { "type": "Point", "coordinates": [ 117.7320367, 4.0775291 ] } },
{ "type": "Feature", "properties": { "name": "Pelabuhan Kalaotoa", "name:en": "Kalaotoa Port", "amenity": "ferry_terminal", "building": null, "port": null, "operator:type": null, "addr:full": null, "addr:city": null, "source": null, "name:id": null, "osm_id": 9579333474, "osm_type": "nodes" }, "geometry": { "type": "Point", "coordinates": [ 121.7745446, -7.3344773 ] } },
{ "type": "Feature", "properties": { "name": "Pelabuhan ferry Selat Beliah (Kundur)", "name:en": "Selat Beliah (Kundur) ferry port", "amenity": "ferry_terminal", "building": null, "port": null, "operator:type": null, "addr:full": null, "addr:city": null, "source": null, "name:id": null, "osm_id": 7083983008, "osm_type": "nodes" }, "geometry": { "type": "Point", "coordinates": [ 103.3768503, 0.898046 ] } },
{ "type": "Feature", "properties": { "name": "Pelabuhan Arefi", "name:en": "Arefi port", "amenity": "ferry_terminal", "building": null, "port": null, "operator:type": null, "addr:full": null, "addr:city": null, "source": null, "name:id": null, "osm_id": 9512304727, "osm_type": "nodes" }, "geometry": { "type": "Point", "coordinates": [ 130.702857, -0.790113 ] } },
{ "type": "Feature", "properties": { "name": "Pelabuhan ferry Bitung", "name:en": "Bitung ferry port", "amenity": "ferry_terminal", "building": null, "port": null, "operator:type": null, "addr:full": null, "addr:city": "Bitung", "source": null, "name:id": null, "osm_id": 1166224026, "osm_type": "nodes" }, "geometry": { "type": "Point", "coordinates": [ 125.2001511, 1.4409835 ] } },
{ "type": "Feature", "properties": { "name": "Pelabuhan ferry Amahai", "name:en": "Amahai ferry port", "amenity": "ferry_terminal", "building": null, "port": null, "operator:type": null, "addr:full": null, "addr:city": "Masohi", "source": null, "name:id": null, "osm_id": 4973146811, "osm_type": "nodes" }, "geometry": { "type": "Point", "coordinates": [ 128.949686, -3.3007068 ] } },
{ "type": "Feature", "properties": { "name": "Pelabuhan ferry Galala (Ambon)", "name:en": "Galala (Ambon) ferry port", "amenity": "ferry_terminal", "building": null, "port": null, "operator:type": null, "addr:full": null, "addr:city": null, "source": null, "name:id": null, "osm_id": 7513781110, "osm_type": "nodes" }, "geometry": { "type": "Point", "coordinates": [ 128.2050204, -3.6618045 ] } },
{ "type": "Feature", "properties": { "name": "Pelabuhan Lemalas", "name:en": null, "amenity": "ferry_terminal", "building": null, "port": null, "operator:type": null, "addr:full": null, "addr:city": null, "source": null, "name:id": null, "osm_id": 3361851760, "osm_type": "nodes" }, "geometry": { "type": "Point", "coordinates": [ 130.2956327, -1.6950285 ] } },
{ "type": "Feature", "properties": { "name": "Pelabuhan ferry Tanjung Uban", "name:en": "Tanjung Uban ferry port", "amenity": "ferry_terminal", "building": null, "port": null, "operator:type": null, "addr:full": null, "addr:city": null, "source": null, "name:id": null, "osm_id": 5249573739, "osm_type": "nodes" }, "geometry": { "type": "Point", "coordinates": [ 104.2190941, 1.0606107 ] } },
{ "type": "Feature", "properties": { "name": "Pelabuhan Pam", "name:en": "Pam port", "amenity": "ferry_terminal", "building": null, "port": null, "operator:type": null, "addr:full": null, "addr:city": null, "source": null, "name:id": null, "osm_id": 6132126175, "osm_type": "nodes" }, "geometry": { "type": "Point", "coordinates": [ 130.2974332, -0.6690932 ] } },
{ "type": "Feature", "properties": { "name": "Pelabuhan Babo", "name:en": "Babo port", "amenity": "ferry_terminal", "building": null, "port": null, "operator:type": null, "addr:full": null, "addr:city": null, "source": null, "name:id": null, "osm_id": 9512473910, "osm_type": "nodes" }, "geometry": { "type": "Point", "coordinates": [ 133.4529718, -2.534132 ] } },
{ "type": "Feature", "properties": { "name": "Pelabuhan Bintuni", "name:en": "Bintuni port", "amenity": "ferry_terminal", "building": null, "port": null, "operator:type": null, "addr:full": null, "addr:city": null, "source": null, "name:id": null, "osm_id": 9512551524, "osm_type": "nodes" }, "geometry": { "type": "Point", "coordinates": [ 133.5262155, -2.1129848 ] } },
{ "type": "Feature", "properties": { "name": "Pelabuhan ferry Jikotamo (Obi)", "name:en": "Jikotamo (Obi) ferry port", "amenity": "ferry_terminal", "building": null, "port": null, "operator:type": null, "addr:full": null, "addr:city": null, "source": null, "name:id": null, "osm_id": 2070420711, "osm_type": "nodes" }, "geometry": { "type": "Point", "coordinates": [ 127.6659716, -1.3467212 ] } },
{ "type": "Feature", "properties": { "name": "Pelabuhan ferry Sofifi", "name:en": null, "amenity": "ferry_terminal", "building": null, "port": null, "operator:type": null, "addr:full": null, "addr:city": null, "source": null, "name:id": null, "osm_id": 2906595085, "osm_type": "nodes" }, "geometry": { "type": "Point", "coordinates": [ 127.5770517, 0.7545645 ] } },
{ "type": "Feature", "properties": { "name": "Pelabuhan ferry Sidangole", "name:en": "Sidangole ferry port", "amenity": "ferry_terminal", "building": null, "port": null, "operator:type": null, "addr:full": null, "addr:city": null, "source": null, "name:id": null, "osm_id": 2906595105, "osm_type": "nodes" }, "geometry": { "type": "Point", "coordinates": [ 127.4994254, 0.8858952 ] } },
{ "type": "Feature", "properties": { "name": "Pelabuhan Ferry Luwuk", "name:en": "Luwuk ferry port", "amenity": "ferry_terminal", "building": null, "port": null, "operator:type": null, "addr:full": null, "addr:city": null, "source": null, "name:id": null, "osm_id": 5752946407, "osm_type": "nodes" }, "geometry": { "type": "Point", "coordinates": [ 122.7965002, -0.95115 ] } },
{ "type": "Feature", "properties": { "name": "Pelabuhan Ferry Taipa", "name:en": "Taipa ferry port", "amenity": "ferry_terminal", "building": null, "port": null, "operator:type": null, "addr:full": null, "addr:city": null, "source": null, "name:id": null, "osm_id": 5947604949, "osm_type": "nodes" }, "geometry": { "type": "Point", "coordinates": [ 119.8580578, -0.7796322 ] } },
{ "type": "Feature", "properties": { "name": "Pelabuhan ferry Teluk Bara", "name:en": "Teluk Bara ferry port", "amenity": "ferry_terminal", "building": null, "port": null, "operator:type": null, "addr:full": null, "addr:city": null, "source": null, "name:id": null, "osm_id": 6168665480, "osm_type": "nodes" }, "geometry": { "type": "Point", "coordinates": [ 126.2238597, -3.1699022 ] } },
{ "type": "Feature", "properties": { "name": "Pelabuhan Ferry Banggai", "name:en": "Banggai ferry port", "amenity": "ferry_terminal", "building": null, "port": null, "operator:type": null, "addr:full": null, "addr:city": null, "source": null, "name:id": null, "osm_id": 6384568943, "osm_type": "nodes" }, "geometry": { "type": "Point", "coordinates": [ 123.4924225, -1.6029237 ] } },
{ "type": "Feature", "properties": { "name": "Pelabuhan Weda", "name:en": "Weda port", "amenity": "ferry_terminal", "building": null, "port": null, "operator:type": null, "addr:full": null, "addr:city": null, "source": null, "name:id": null, "osm_id": 6567770635, "osm_type": "nodes" }, "geometry": { "type": "Point", "coordinates": [ 127.8819092, 0.3342551 ] } },
{ "type": "Feature", "properties": { "name": "Balohan", "name:en": null, "amenity": "ferry_terminal", "building": null, "port": null, "operator:type": null, "addr:full": null, "addr:city": null, "source": null, "name:id": null, "osm_id": 4974426525, "osm_type": "nodes" }, "geometry": { "type": "Point", "coordinates": [ 95.3478398, 5.8266788 ] } },
{ "type": "Feature", "properties": { "name": "Pelabuhan ferry Tolitoli", "name:en": "Tolitoli ferry port", "amenity": "ferry_terminal", "building": null, "port": null, "operator:type": null, "addr:full": null, "addr:city": null, "source": null, "name:id": null, "osm_id": 9509167491, "osm_type": "nodes" }, "geometry": { "type": "Point", "coordinates": [ 120.8085045, 1.0374314 ] } },
{ "type": "Feature", "properties": { "name": "Pelabuhan ferry Amurang", "name:en": "Amurang ferry port", "amenity": "ferry_terminal", "building": null, "port": null, "operator:type": null, "addr:full": null, "addr:city": null, "source": null, "name:id": null, "osm_id": 9509216637, "osm_type": "nodes" }, "geometry": { "type": "Point", "coordinates": [ 124.5499367, 1.2001572 ] } },
{ "type": "Feature", "properties": { "name": "Pelabuhan ferry Gorontalo", "name:en": "Gorontalo ferry port", "amenity": "ferry_terminal", "building": null, "port": null, "operator:type": null, "addr:full": null, "addr:city": null, "source": null, "name:id": null, "osm_id": 9530485696, "osm_type": "nodes" }, "geometry": { "type": "Point", "coordinates": [ 123.0699403, 0.4971536 ] } },
{ "type": "Feature", "properties": { "name": "Pelabuhan ferry Pananaru", "name:en": "Pananaru ferry port", "amenity": "ferry_terminal", "building": null, "port": null, "operator:type": null, "addr:full": null, "addr:city": null, "source": null, "name:id": null, "osm_id": 9588712722, "osm_type": "nodes" }, "geometry": { "type": "Point", "coordinates": [ 125.5498741, 3.4337046 ] } },
{ "type": "Feature", "properties": { "name": "Pelabuhan ferry Biaro", "name:en": null, "amenity": "ferry_terminal", "building": null, "port": null, "operator:type": null, "addr:full": null, "addr:city": null, "source": null, "name:id": null, "osm_id": 10572177545, "osm_type": "nodes" }, "geometry": { "type": "Point", "coordinates": [ 125.364323, 2.1269977 ] } },
{ "type": "Feature", "properties": { "name": "Pelabuhan Buhias", "name:en": "Buhias port", "amenity": "ferry_terminal", "building": null, "port": null, "operator:type": null, "addr:full": null, "addr:city": null, "source": null, "name:id": null, "osm_id": 10572227586, "osm_type": "nodes" }, "geometry": { "type": "Point", "coordinates": [ 125.4520778, 2.675921 ] } },
{ "type": "Feature", "properties": { "name": "Pelabuhan ferry Tidore (Rum)", "name:en": null, "amenity": "ferry_terminal", "building": null, "port": null, "operator:type": null, "addr:full": null, "addr:city": null, "source": null, "name:id": null, "osm_id": 10572304363, "osm_type": "nodes" }, "geometry": { "type": "Point", "coordinates": [ 127.3856117, 0.737205 ] } },
{ "type": "Feature", "properties": { "name": "Pelabuhan ferry Sif Patani", "name:en": "Sif Patani ferry port", "amenity": "ferry_terminal", "building": null, "port": null, "operator:type": null, "addr:full": null, "addr:city": null, "source": null, "name:id": null, "osm_id": 10574351177, "osm_type": "nodes" }, "geometry": { "type": "Point", "coordinates": [ 128.6537368, 0.3027372 ] } },
{ "type": "Feature", "properties": { "name": "Pelabuhan ferry Moti", "name:en": "Moti ferry port", "amenity": "ferry_terminal", "building": null, "port": null, "operator:type": null, "addr:full": null, "addr:city": null, "source": null, "name:id": null, "osm_id": 10585396584, "osm_type": "nodes" }, "geometry": { "type": "Point", "coordinates": [ 127.4381631, 0.4540465 ] } },
{ "type": "Feature", "properties": { "name": "Pelabuhan ferry Saketa", "name:en": "Saketa ferry port", "amenity": "ferry_terminal", "building": null, "port": null, "operator:type": null, "addr:full": null, "addr:city": null, "source": null, "name:id": null, "osm_id": 10585438946, "osm_type": "nodes" }, "geometry": { "type": "Point", "coordinates": [ 127.8354786, -0.3516104 ] } },
{ "type": "Feature", "properties": { "name": "Pelabuhan ferry Sanana", "name:en": "Sanana ferry port", "amenity": "ferry_terminal", "building": null, "port": null, "operator:type": null, "addr:full": null, "addr:city": null, "source": null, "name:id": null, "osm_id": 10585946276, "osm_type": "nodes" }, "geometry": { "type": "Point", "coordinates": [ 125.9504563, -1.9874611 ] } },
{ "type": "Feature", "properties": { "name": "Pelabuhan ferry Mangole", "name:en": "Mangole ferry port", "amenity": "ferry_terminal", "building": null, "port": null, "operator:type": null, "addr:full": null, "addr:city": null, "source": null, "name:id": null, "osm_id": 10585949741, "osm_type": "nodes" }, "geometry": { "type": "Point", "coordinates": [ 125.9144009, -1.9386872 ] } },
{ "type": "Feature", "properties": { "name": "Pelabuhan ferry Bobong", "name:en": "Bobong ferry port", "amenity": "ferry_terminal", "building": null, "port": null, "operator:type": null, "addr:full": null, "addr:city": null, "source": null, "name:id": null, "osm_id": 10585949779, "osm_type": "nodes" }, "geometry": { "type": "Point", "coordinates": [ 124.3405476, -1.8992924 ] } },
{ "type": "Feature", "properties": { "name": "Pelabuhan ferry Salakan", "name:en": "Salakan ferry port", "amenity": "ferry_terminal", "building": null, "port": null, "operator:type": null, "addr:full": null, "addr:city": null, "source": null, "name:id": null, "osm_id": 10586006652, "osm_type": "nodes" }, "geometry": { "type": "Point", "coordinates": [ 123.2703033, -1.3724402 ] } },
{ "type": "Feature", "properties": { "name": "Pelabuhan ferry Kailolo", "name:en": "Kailolo ferry port", "amenity": "ferry_terminal", "building": null, "port": null, "operator:type": null, "addr:full": null, "addr:city": null, "source": null, "name:id": null, "osm_id": 10588630755, "osm_type": "nodes" }, "geometry": { "type": "Point", "coordinates": [ 128.4177042, -3.5469776 ] } },
{ "type": "Feature", "properties": { "name": "Pelabuhan ferry Wailey", "name:en": "Wailey ferry port", "amenity": "ferry_terminal", "building": null, "port": null, "operator:type": null, "addr:full": null, "addr:city": null, "source": null, "name:id": null, "osm_id": 10588630806, "osm_type": "nodes" }, "geometry": { "type": "Point", "coordinates": [ 128.6198288, -3.4311202 ] } },
{ "type": "Feature", "properties": { "name": "Pelabuhan ferry Nalahia", "name:en": "Nalahia ferry port", "amenity": "ferry_terminal", "building": null, "port": null, "operator:type": null, "addr:full": null, "addr:city": null, "source": null, "name:id": null, "osm_id": 10588630887, "osm_type": "nodes" }, "geometry": { "type": "Point", "coordinates": [ 128.790173399999986, -3.6446806 ] } },
{ "type": "Feature", "properties": { "name": "Pelabuhan ferry Waai", "name:en": "Waai ferry port", "amenity": "ferry_terminal", "building": null, "port": null, "operator:type": null, "addr:full": null, "addr:city": null, "source": null, "name:id": null, "osm_id": 10588630905, "osm_type": "nodes" }, "geometry": { "type": "Point", "coordinates": [ 128.3273155, -3.5573498 ] } },
{ "type": "Feature", "properties": { "name": "Pelabuhan ferry Mawasangka", "name:en": "Mawasangka ferry port", "amenity": "ferry_terminal", "building": null, "port": null, "operator:type": null, "addr:full": null, "addr:city": null, "source": null, "name:id": null, "osm_id": 1563860035, "osm_type": "nodes" }, "geometry": { "type": "Point", "coordinates": [ 122.2800174, -5.2807924 ] } },
{ "type": "Feature", "properties": { "name": "Pelabuhan ferry Torobulu", "name:en": "Torobulu ferry port", "amenity": "ferry_terminal", "building": null, "port": null, "operator:type": null, "addr:full": null, "addr:city": null, "source": null, "name:id": null, "osm_id": 3180138403, "osm_type": "nodes" }, "geometry": { "type": "Point", "coordinates": [ 122.4568259, -4.4468496 ] } },
{ "type": "Feature", "properties": { "name": "Pelabuhan Ferry Labuan", "name:en": "Labuan ferry port", "amenity": "ferry_terminal", "building": null, "port": null, "operator:type": null, "addr:full": null, "addr:city": null, "source": null, "name:id": null, "osm_id": 5733223383, "osm_type": "nodes" }, "geometry": { "type": "Point", "coordinates": [ 122.9026475, -4.4707638 ] } },
{ "type": "Feature", "properties": { "name": "Pelabuhan ferry Pising", "name:en": "Pising ferry port", "amenity": "ferry_terminal", "building": null, "port": null, "operator:type": null, "addr:full": null, "addr:city": null, "source": null, "name:id": null, "osm_id": 6390207123, "osm_type": "nodes" }, "geometry": { "type": "Point", "coordinates": [ 121.8992011, -5.0762319 ] } },
{ "type": "Feature", "properties": { "name": "Pelabuhan ferry Dongkala", "name:en": "Dongkala ferry port", "amenity": "ferry_terminal", "building": null, "port": null, "operator:type": null, "addr:full": null, "addr:city": null, "source": null, "name:id": null, "osm_id": 8302560846, "osm_type": "nodes" }, "geometry": { "type": "Point", "coordinates": [ 122.0505143, -5.3196212 ] } },
{ "type": "Feature", "properties": { "name": "Pelabuhan ferry Tobaku", "name:en": "Tobaku ferry port", "amenity": "ferry_terminal", "building": null, "port": null, "operator:type": null, "addr:full": null, "addr:city": null, "source": null, "name:id": null, "osm_id": 8458422661, "osm_type": "nodes" }, "geometry": { "type": "Point", "coordinates": [ 120.8873895, -3.4138525 ] } },
{ "type": "Feature", "properties": { "name": "Pelabuhan ferry Maropokot", "name:en": "Maropokot ferry port", "amenity": "ferry_terminal", "building": null, "port": null, "operator:type": null, "addr:full": null, "addr:city": null, "source": null, "name:id": null, "osm_id": 10581084269, "osm_type": "nodes" }, "geometry": { "type": "Point", "coordinates": [ 121.3303078, -8.5163796 ] } },
{ "type": "Feature", "properties": { "name": "Pelabuhan ferry Pemana", "name:en": "Pemana ferry port", "amenity": "ferry_terminal", "building": null, "port": null, "operator:type": null, "addr:full": null, "addr:city": null, "source": null, "name:id": null, "osm_id": 10593172463, "osm_type": "nodes" }, "geometry": { "type": "Point", "coordinates": [ 122.3203748, -8.3540684 ] } },
{ "type": "Feature", "properties": { "name": "Pelabuhan ferry Baranusa", "name:en": "Baranusa ferry port", "amenity": "ferry_terminal", "building": null, "port": null, "operator:type": null, "addr:full": null, "addr:city": null, "source": null, "name:id": null, "osm_id": 503822849, "osm_type": "nodes" }, "geometry": { "type": "Point", "coordinates": [ 124.093663, -8.363634 ] } },
{ "type": "Feature", "properties": { "name": "Pelabuhan ferry Sape", "name:en": "Sape ferry port", "amenity": "ferry_terminal", "building": null, "port": null, "operator:type": null, "addr:full": null, "addr:city": null, "source": null, "name:id": null, "osm_id": 1818583252, "osm_type": "nodes" }, "geometry": { "type": "Point", "coordinates": [ 119.0217822, -8.5726006 ] } },
{ "type": "Feature", "properties": { "name": "Dermaga 1 Pototano", "name:en": "Pier 1 Pototano ferry port", "amenity": "ferry_terminal", "building": null, "port": null, "operator:type": null, "addr:full": null, "addr:city": null, "source": null, "name:id": null, "osm_id": 3939816550, "osm_type": "nodes" }, "geometry": { "type": "Point", "coordinates": [ 116.8328237, -8.5215493 ] } },
{ "type": "Feature", "properties": { "name": "Pelabuhan ferry Gurita", "name:en": "Gurita ferry port", "amenity": "ferry_terminal", "building": null, "port": null, "operator:type": null, "addr:full": null, "addr:city": null, "source": null, "name:id": null, "osm_id": 5559400584, "osm_type": "nodes" }, "geometry": { "type": "Point", "coordinates": [ 124.8100266, -9.0105249 ] } },
{ "type": "Feature", "properties": { "name": "Pelabuhan ferry Kalabahi", "name:en": "Kalabahi ferry port", "amenity": "ferry_terminal", "building": null, "port": null, "operator:type": null, "addr:full": null, "addr:city": null, "source": null, "name:id": null, "osm_id": 6520488721, "osm_type": "nodes" }, "geometry": { "type": "Point", "coordinates": [ 124.5123632, -8.2219727 ] } },
{ "type": "Feature", "properties": { "name": "Pelabuhan ferry Larantuka", "name:en": "Larantuka ferry port", "amenity": "ferry_terminal", "building": null, "port": null, "operator:type": null, "addr:full": null, "addr:city": null, "source": null, "name:id": null, "osm_id": 6557189636, "osm_type": "nodes" }, "geometry": { "type": "Point", "coordinates": [ 122.9505775, -8.3453415 ] } },
{ "type": "Feature", "properties": { "name": "Dermaga 2 Pototano", "name:en": "Pier 2 Pototano ferry port", "amenity": "ferry_terminal", "building": null, "port": null, "operator:type": null, "addr:full": null, "addr:city": null, "source": null, "name:id": null, "osm_id": 7514599874, "osm_type": "nodes" }, "geometry": { "type": "Point", "coordinates": [ 116.8329884, -8.5199601 ] } },
{ "type": "Feature", "properties": { "name": "Pelabuhan ferry Aimere", "name:en": "Aimere ferry port", "amenity": "ferry_terminal", "building": null, "port": null, "operator:type": null, "addr:full": null, "addr:city": null, "source": null, "name:id": null, "osm_id": 7697623059, "osm_type": "nodes" }, "geometry": { "type": "Point", "coordinates": [ 120.8544257, -8.842257 ] } },
{ "type": "Feature", "properties": { "name": "Pelabuhan ferry Lohayong", "name:en": "Lohayong ferry port", "amenity": "ferry_terminal", "building": null, "port": null, "operator:type": null, "addr:full": null, "addr:city": null, "source": null, "name:id": null, "osm_id": 8101426080, "osm_type": "nodes" }, "geometry": { "type": "Point", "coordinates": [ 123.0598323, -8.4343162 ] } },
{ "type": "Feature", "properties": { "name": "Pelabuhan ferry Lewoleba", "name:en": "Lewoleba ferry port", "amenity": "ferry_terminal", "building": null, "port": null, "operator:type": null, "addr:full": null, "addr:city": null, "source": null, "name:id": null, "osm_id": 8460002711, "osm_type": "nodes" }, "geometry": { "type": "Point", "coordinates": [ 123.3506426, -8.3934349 ] } },
{ "type": "Feature", "properties": { "name": "Pelabuhan ferry Bakalang", "name:en": "Bakalang ferry port", "amenity": "ferry_terminal", "building": null, "port": null, "operator:type": null, "addr:full": null, "addr:city": null, "source": null, "name:id": null, "osm_id": 10578102545, "osm_type": "nodes" }, "geometry": { "type": "Point", "coordinates": [ 124.2989026, -8.2682172 ] } },
{ "type": "Feature", "properties": { "name": "Pelabuhan ferry Deri", "name:en": "Deri ferry port", "amenity": "ferry_terminal", "building": null, "port": null, "operator:type": null, "addr:full": null, "addr:city": null, "source": null, "name:id": null, "osm_id": 10578102611, "osm_type": "nodes" }, "geometry": { "type": "Point", "coordinates": [ 123.304597, -8.3286552 ] } },
{ "type": "Feature", "properties": { "name": "Pelabuhan ferry Waingapu", "name:en": "Waingapu ferry port", "amenity": "ferry_terminal", "building": null, "port": null, "operator:type": null, "addr:full": null, "addr:city": null, "source": null, "name:id": null, "osm_id": 10578508995, "osm_type": "nodes" }, "geometry": { "type": "Point", "coordinates": [ 120.2473248, -9.6365911 ] } },
{ "type": "Feature", "properties": { "name": "Pelabuhan ferry Ndao", "name:en": "Ndao ferry port", "amenity": "ferry_terminal", "building": null, "port": null, "operator:type": null, "addr:full": null, "addr:city": null, "source": null, "name:id": null, "osm_id": 10578842676, "osm_type": "nodes" }, "geometry": { "type": "Point", "coordinates": [ 122.6708669, -10.8103114 ] } },
{ "type": "Feature", "properties": { "name": "Balohan", "name:en": null, "amenity": "ferry_terminal", "building": null, "port": null, "operator:type": null, "addr:full": null, "addr:city": null, "source": null, "name:id": null, "osm_id": 7182325635, "osm_type": "nodes" }, "geometry": { "type": "Point", "coordinates": [ 95.3483208, 5.826848 ] } },
{ "type": "Feature", "properties": { "name": "Pelabuhan ferry Alai Insit", "name:en": "Alai Insit ferry port", "amenity": "ferry_terminal", "building": null, "port": null, "operator:type": null, "addr:full": null, "addr:city": null, "source": null, "name:id": null, "osm_id": 10598558618, "osm_type": "nodes" }, "geometry": { "type": "Point", "coordinates": [ 102.6665013, 0.9990882 ] } },
{ "type": "Feature", "properties": { "name": "Pelabuhan ferry Pecah Buyung", "name:en": "Pecah Buyung ferry port", "amenity": "ferry_terminal", "building": null, "port": null, "operator:type": null, "addr:full": null, "addr:city": null, "source": null, "name:id": null, "osm_id": 10598563228, "osm_type": "nodes" }, "geometry": { "type": "Point", "coordinates": [ 102.6658054, 1.0166665 ] } },
{ "type": "Feature", "properties": { "name": "Pelabuhan ferry Nusa Penida (Sampalan)", "name:en": "Nusa Penida (Sampalan) ferry port", "amenity": "ferry_terminal", "building": null, "port": null, "operator:type": null, "addr:full": null, "addr:city": null, "source": null, "name:id": null, "osm_id": 7689514186, "osm_type": "nodes" }, "geometry": { "type": "Point", "coordinates": [ 115.5541135, -8.6724305 ] } },
{ "type": "Feature", "properties": { "name": "Pelabuhan Palue", "name:en": "Palue port", "amenity": "ferry_terminal", "building": null, "port": null, "operator:type": null, "addr:full": null, "addr:city": null, "source": null, "name:id": null, "osm_id": 5792787939, "osm_type": "nodes" }, "geometry": { "type": "Point", "coordinates": [ 121.7365465, -8.3065614 ] } },
{ "type": "Feature", "properties": { "name": "Pelabuhan Ferry Tolandona", "name:en": "Tolandona ferry port", "amenity": "ferry_terminal", "building": null, "port": null, "operator:type": null, "addr:full": null, "addr:city": null, "source": null, "name:id": null, "osm_id": 5717328542, "osm_type": "nodes" }, "geometry": { "type": "Point", "coordinates": [ 122.6157943, -5.3665637 ] } },
{ "type": "Feature", "properties": { "name": "Pelabuhan ferry Waikelo", "name:en": "Waikelo ferry port", "amenity": "ferry_terminal", "building": null, "port": null, "operator:type": null, "addr:full": null, "addr:city": null, "source": null, "name:id": null, "osm_id": 3290988841, "osm_type": "nodes" }, "geometry": { "type": "Point", "coordinates": [ 119.2292756, -9.3844684 ] } },
{ "type": "Feature", "properties": { "name": "Pelabuhan Pasokan", "name:en": "Pasokan port", "amenity": "ferry_terminal", "building": null, "port": null, "operator:type": null, "addr:full": null, "addr:city": null, "source": null, "name:id": null, "osm_id": 9499678279, "osm_type": "nodes" }, "geometry": { "type": "Point", "coordinates": [ 122.3436487, -0.3023816 ] } },
{ "type": "Feature", "properties": { "name": "Pelabuhan ferry Subaim", "name:en": "Subaim ferry port", "amenity": "ferry_terminal", "building": null, "port": null, "operator:type": null, "addr:full": null, "addr:city": null, "source": null, "name:id": null, "osm_id": 10573725508, "osm_type": "nodes" }, "geometry": { "type": "Point", "coordinates": [ 128.1338814, 1.1270504 ] } },
{ "type": "Feature", "properties": { "name": "Dermaga", "name:en": null, "amenity": "ferry_terminal", "building": null, "port": null, "operator:type": null, "addr:full": null, "addr:city": null, "source": null, "name:id": null, "osm_id": 6785018308, "osm_type": "nodes" }, "geometry": { "type": "Point", "coordinates": [ 125.4777827, 4.7294997 ] } },
{ "type": "Feature", "properties": { "name": "Sekupang Intl Sea Port", "name:en": null, "amenity": "ferry_terminal", "building": null, "port": null, "operator:type": null, "addr:full": null, "addr:city": null, "source": "Batam Mapping Project", "name:id": null, "osm_id": 702355121, "osm_type": "nodes" }, "geometry": { "type": "Point", "coordinates": [ 103.92533, 1.12535 ] } },
{ "type": "Feature", "properties": { "name": "Pelabuhan Kayu Sagulung", "name:en": null, "amenity": "ferry_terminal", "building": null, "port": null, "operator:type": null, "addr:full": null, "addr:city": null, "source": "Batam Mapping Project", "name:id": null, "osm_id": 702331013, "osm_type": "nodes" }, "geometry": { "type": "Point", "coordinates": [ 103.9254423, 1.0258493 ] } },
{ "type": "Feature", "properties": { "name": "Sekupang Domistic Sea Port", "name:en": null, "amenity": "ferry_terminal", "building": null, "port": null, "operator:type": null, "addr:full": null, "addr:city": null, "source": "Batam Mapping Project", "name:id": null, "osm_id": 702355103, "osm_type": "nodes" }, "geometry": { "type": "Point", "coordinates": [ 103.92657, 1.12511 ] } },
{ "type": "Feature", "properties": { "name": "Sekupang Pancong Port", "name:en": null, "amenity": "ferry_terminal", "building": null, "port": null, "operator:type": null, "addr:full": null, "addr:city": null, "source": "Batam Mapping Project", "name:id": null, "osm_id": 702355104, "osm_type": "nodes" }, "geometry": { "type": "Point", "coordinates": [ 103.9273836, 1.1237166 ] } },
{ "type": "Feature", "properties": { "name": "Phonton Nongsa Ferry Terminal", "name:en": null, "amenity": "ferry_terminal", "building": null, "port": null, "operator:type": null, "addr:full": null, "addr:city": null, "source": "Batam Mapping Project", "name:id": null, "osm_id": 760545016, "osm_type": "nodes" }, "geometry": { "type": "Point", "coordinates": [ 104.0304174, 1.1913662 ] } },
{ "type": "Feature", "properties": { "name": "Vip Pemprov. Ferry Term.", "name:en": null, "amenity": "ferry_terminal", "building": null, "port": null, "operator:type": null, "addr:full": null, "addr:city": null, "source": "Batam Mapping Project", "name:id": null, "osm_id": 760585789, "osm_type": "nodes" }, "geometry": { "type": "Point", "coordinates": [ 104.1338436, 1.0360989 ] } },
{ "type": "Feature", "properties": { "name": "Phonton T.Punggur", "name:en": null, "amenity": "ferry_terminal", "building": null, "port": null, "operator:type": null, "addr:full": null, "addr:city": null, "source": "Batam Mapping Project", "name:id": null, "osm_id": 760585852, "osm_type": "nodes" }, "geometry": { "type": "Point", "coordinates": [ 104.1339731, 1.0367982 ] } },
{ "type": "Feature", "properties": { "name": "Phonton Telaga Punggur-2", "name:en": null, "amenity": "ferry_terminal", "building": null, "port": null, "operator:type": null, "addr:full": null, "addr:city": null, "source": "Batam Mapping Project", "name:id": null, "osm_id": 760585892, "osm_type": "nodes" }, "geometry": { "type": "Point", "coordinates": [ 104.1332518, 1.0346342 ] } },
{ "type": "Feature", "properties": { "name": "Ferry Terminal Btm Cntr", "name:en": null, "amenity": "ferry_terminal", "building": null, "port": null, "operator:type": null, "addr:full": null, "addr:city": null, "source": "Batam Mapping Project", "name:id": null, "osm_id": 857022047, "osm_type": "nodes" }, "geometry": { "type": "Point", "coordinates": [ 104.0550745, 1.1304192 ] } },
{ "type": "Feature", "properties": { "name": null, "name:en": null, "amenity": "ferry_terminal", "building": null, "port": null, "operator:type": null, "addr:full": null, "addr:city": null, "source": null, "name:id": null, "osm_id": 5072456054, "osm_type": "nodes" }, "geometry": { "type": "Point", "coordinates": [ 124.8418763, 1.4986274 ] } },
{ "type": "Feature", "properties": { "name": "Paloh river motorbike ferry south", "name:en": null, "amenity": "ferry_terminal", "building": null, "port": null, "operator:type": null, "addr:full": null, "addr:city": null, "source": null, "name:id": null, "osm_id": 1804045965, "osm_type": "nodes" }, "geometry": { "type": "Point", "coordinates": [ 109.3704513, 1.8306984 ] } },
{ "type": "Feature", "properties": { "name": "Northern Paloh river motorbike ferry jetty", "name:en": null, "amenity": "ferry_terminal", "building": null, "port": null, "operator:type": null, "addr:full": null, "addr:city": null, "source": null, "name:id": null, "osm_id": 1804045987, "osm_type": "nodes" }, "geometry": { "type": "Point", "coordinates": [ 109.3674171, 1.8357894 ] } },
{ "type": "Feature", "properties": { "name": null, "name:en": null, "amenity": "ferry_terminal", "building": null, "port": null, "operator:type": null, "addr:full": null, "addr:city": null, "source": null, "name:id": null, "osm_id": 7057485528, "osm_type": "nodes" }, "geometry": { "type": "Point", "coordinates": [ 123.0049314, -8.3563922 ] } },
{ "type": "Feature", "properties": { "name": "Dermaga Loh Liang", "name:en": null, "amenity": "ferry_terminal", "building": null, "port": null, "operator:type": null, "addr:full": null, "addr:city": null, "source": null, "name:id": null, "osm_id": 1375289074, "osm_type": "nodes" }, "geometry": { "type": "Point", "coordinates": [ 119.4996842, -8.5707456 ] } },
{ "type": "Feature", "properties": { "name": "Ende", "name:en": null, "amenity": "ferry_terminal", "building": null, "port": null, "operator:type": null, "addr:full": null, "addr:city": null, "source": null, "name:id": null, "osm_id": 8043389890, "osm_type": "nodes" }, "geometry": { "type": "Point", "coordinates": [ 121.5150386, -8.8778781 ] } },
{ "type": "Feature", "properties": { "name": null, "name:en": null, "amenity": "ferry_terminal", "building": null, "port": null, "operator:type": null, "addr:full": null, "addr:city": null, "source": null, "name:id": null, "osm_id": 7725486247, "osm_type": "nodes" }, "geometry": { "type": "Point", "coordinates": [ 114.5695523, -3.2679467 ] } },
{ "type": "Feature", "properties": { "name": null, "name:en": null, "amenity": "ferry_terminal", "building": null, "port": null, "operator:type": null, "addr:full": null, "addr:city": null, "source": null, "name:id": null, "osm_id": 7745999996, "osm_type": "nodes" }, "geometry": { "type": "Point", "coordinates": [ 103.1618749, -0.3354586 ] } },
{ "type": "Feature", "properties": { "name": "Pelabuhan Tembilahan", "name:en": null, "amenity": "ferry_terminal", "building": null, "port": null, "operator:type": null, "addr:full": null, "addr:city": null, "source": null, "name:id": null, "osm_id": 7745999998, "osm_type": "nodes" }, "geometry": { "type": "Point", "coordinates": [ 103.1572579, -0.3297073 ] } },
{ "type": "Feature", "properties": { "name": null, "name:en": null, "amenity": "ferry_terminal", "building": null, "port": null, "operator:type": null, "addr:full": null, "addr:city": null, "source": null, "name:id": null, "osm_id": 11353464612, "osm_type": "nodes" }, "geometry": { "type": "Point", "coordinates": [ 103.1809445, -0.5162193 ] } },
{ "type": "Feature", "properties": { "name": null, "name:en": null, "amenity": "ferry_terminal", "building": null, "port": null, "operator:type": null, "addr:full": null, "addr:city": null, "source": null, "name:id": null, "osm_id": 11353464613, "osm_type": "nodes" }, "geometry": { "type": "Point", "coordinates": [ 103.1814162, -0.5148095 ] } },
{ "type": "Feature", "properties": { "name": "Boats for Rammang-rammang", "name:en": null, "amenity": "ferry_terminal", "building": null, "port": null, "operator:type": null, "addr:full": null, "addr:city": null, "source": null, "name:id": null, "osm_id": 10239681586, "osm_type": "nodes" }, "geometry": { "type": "Point", "coordinates": [ 119.6076109, -4.925162 ] } },
{ "type": "Feature", "properties": { "name": null, "name:en": null, "amenity": "ferry_terminal", "building": null, "port": null, "operator:type": null, "addr:full": null, "addr:city": null, "source": null, "name:id": null, "osm_id": 7270677606, "osm_type": "nodes" }, "geometry": { "type": "Point", "coordinates": [ 121.6920979, -0.4775118 ] } },
{ "type": "Feature", "properties": { "name": null, "name:en": null, "amenity": "ferry_terminal", "building": null, "port": null, "operator:type": null, "addr:full": null, "addr:city": null, "source": null, "name:id": null, "osm_id": 7270683029, "osm_type": "nodes" }, "geometry": { "type": "Point", "coordinates": [ 121.9013487, -0.3341693 ] } },
{ "type": "Feature", "properties": { "name": null, "name:en": null, "amenity": "ferry_terminal", "building": null, "port": null, "operator:type": null, "addr:full": null, "addr:city": null, "source": null, "name:id": null, "osm_id": 5865320258, "osm_type": "nodes" }, "geometry": { "type": "Point", "coordinates": [ 102.630592, -1.4787549 ] } },
{ "type": "Feature", "properties": { "name": null, "name:en": null, "amenity": "ferry_terminal", "building": null, "port": null, "operator:type": null, "addr:full": null, "addr:city": null, "source": null, "name:id": null, "osm_id": 7888882776, "osm_type": "nodes" }, "geometry": { "type": "Point", "coordinates": [ 102.8751504, -1.6709376 ] } },
{ "type": "Feature", "properties": { "name": null, "name:en": null, "amenity": "ferry_terminal", "building": null, "port": null, "operator:type": null, "addr:full": null, "addr:city": null, "source": null, "name:id": null, "osm_id": 5987477645, "osm_type": "nodes" }, "geometry": { "type": "Point", "coordinates": [ 112.6850194, -1.1860923 ] } },
{ "type": "Feature", "properties": { "name": null, "name:en": null, "amenity": "ferry_terminal", "building": null, "port": null, "operator:type": null, "addr:full": null, "addr:city": null, "source": null, "name:id": null, "osm_id": 5987582497, "osm_type": "nodes" }, "geometry": { "type": "Point", "coordinates": [ 112.684017, -1.1862201 ] } },
{ "type": "Feature", "properties": { "name": null, "name:en": null, "amenity": "ferry_terminal", "building": null, "port": null, "operator:type": null, "addr:full": null, "addr:city": null, "source": null, "name:id": null, "osm_id": 8925887938, "osm_type": "nodes" }, "geometry": { "type": "Point", "coordinates": [ 113.0901809, -1.343303 ] } },
{ "type": "Feature", "properties": { "name": null, "name:en": null, "amenity": "ferry_terminal", "building": null, "port": null, "operator:type": null, "addr:full": null, "addr:city": null, "source": null, "name:id": null, "osm_id": 8925887929, "osm_type": "nodes" }, "geometry": { "type": "Point", "coordinates": [ 113.0904732, -1.3445133 ] } },
{ "type": "Feature", "properties": { "name": null, "name:en": null, "amenity": "ferry_terminal", "building": null, "port": null, "operator:type": null, "addr:full": null, "addr:city": null, "source": null, "name:id": null, "osm_id": 8925887931, "osm_type": "nodes" }, "geometry": { "type": "Point", "coordinates": [ 113.0902131, -1.3435068 ] } },
{ "type": "Feature", "properties": { "name": null, "name:en": null, "amenity": "ferry_terminal", "building": null, "port": null, "operator:type": null, "addr:full": null, "addr:city": null, "source": null, "name:id": null, "osm_id": 8925887935, "osm_type": "nodes" }, "geometry": { "type": "Point", "coordinates": [ 113.0915113, -1.3437213 ] } },
{ "type": "Feature", "properties": { "name": null, "name:en": null, "amenity": "ferry_terminal", "building": null, "port": null, "operator:type": null, "addr:full": null, "addr:city": null, "source": null, "name:id": null, "osm_id": 7182774873, "osm_type": "nodes" }, "geometry": { "type": "Point", "coordinates": [ 119.8779435, -8.5041505 ] } },
{ "type": "Feature", "properties": { "name": null, "name:en": null, "amenity": "ferry_terminal", "building": null, "port": null, "operator:type": null, "addr:full": null, "addr:city": null, "source": null, "name:id": null, "osm_id": 2186484782, "osm_type": "nodes" }, "geometry": { "type": "Point", "coordinates": [ 118.6320991, 4.2489003 ] } },
{ "type": "Feature", "properties": { "name": null, "name:en": null, "amenity": "ferry_terminal", "building": null, "port": null, "operator:type": null, "addr:full": null, "addr:city": null, "source": null, "name:id": null, "osm_id": 11688132537, "osm_type": "nodes" }, "geometry": { "type": "Point", "coordinates": [ 103.565293, -0.9294999 ] } },
{ "type": "Feature", "properties": { "name": null, "name:en": null, "amenity": "ferry_terminal", "building": null, "port": null, "operator:type": null, "addr:full": null, "addr:city": null, "source": null, "name:id": null, "osm_id": 11688132539, "osm_type": "nodes" }, "geometry": { "type": "Point", "coordinates": [ 103.5656515, -0.9297262 ] } },
{ "type": "Feature", "properties": { "name": "Dermaga 2", "name:en": null, "amenity": "ferry_terminal", "building": null, "port": null, "operator:type": null, "addr:full": null, "addr:city": null, "source": null, "name:id": null, "osm_id": 3331637635, "osm_type": "nodes" }, "geometry": { "type": "Point", "coordinates": [ 105.9955489, -5.9307805 ] } },
{ "type": "Feature", "properties": { "name": null, "name:en": null, "amenity": "ferry_terminal", "building": null, "port": null, "operator:type": null, "addr:full": null, "addr:city": null, "source": null, "name:id": null, "osm_id": 1991710078, "osm_type": "nodes" }, "geometry": { "type": "Point", "coordinates": [ 140.2151815, -5.8024305 ] } },
{ "type": "Feature", "properties": { "name": "Araya", "name:en": null, "amenity": "ferry_terminal", "building": null, "port": null, "operator:type": null, "addr:full": null, "addr:city": null, "source": null, "name:id": null, "osm_id": 7270666653, "osm_type": "nodes" }, "geometry": { "type": "Point", "coordinates": [ 121.6617421, -0.5332896 ] } },
{ "type": "Feature", "properties": { "name": null, "name:en": null, "amenity": "ferry_terminal", "building": null, "port": null, "operator:type": null, "addr:full": null, "addr:city": null, "source": null, "name:id": null, "osm_id": 11337302400, "osm_type": "nodes" }, "geometry": { "type": "Point", "coordinates": [ 103.1387418, -0.7884765 ] } },
{ "type": "Feature", "properties": { "name": null, "name:en": null, "amenity": "ferry_terminal", "building": null, "port": null, "operator:type": null, "addr:full": null, "addr:city": null, "source": null, "name:id": null, "osm_id": 11337748966, "osm_type": "nodes" }, "geometry": { "type": "Point", "coordinates": [ 103.0368582, -0.8458035 ] } },
{ "type": "Feature", "properties": { "name": "Pelabuhan", "name:en": null, "amenity": "ferry_terminal", "building": null, "port": null, "operator:type": null, "addr:full": null, "addr:city": "Modisi", "source": null, "name:id": null, "osm_id": 10200926719, "osm_type": "nodes" }, "geometry": { "type": "Point", "coordinates": [ 124.4309417, 0.4476662 ] } },
{ "type": "Feature", "properties": { "name": "Ferry", "name:en": null, "amenity": "ferry_terminal", "building": null, "port": null, "operator:type": null, "addr:full": null, "addr:city": null, "source": null, "name:id": null, "osm_id": 5796710690, "osm_type": "nodes" }, "geometry": { "type": "Point", "coordinates": [ 103.3755272, 0.8979215 ] } },
{ "type": "Feature", "properties": { "name": "Banda Aceh", "name:en": null, "amenity": "ferry_terminal", "building": null, "port": null, "operator:type": null, "addr:full": null, "addr:city": null, "source": "Bing", "name:id": null, "osm_id": 726705368, "osm_type": "nodes" }, "geometry": { "type": "Point", "coordinates": [ 95.2947778, 5.5650769 ] } },
{ "type": "Feature", "properties": { "name": "Banda Aceh", "name:en": null, "amenity": "ferry_terminal", "building": null, "port": null, "operator:type": null, "addr:full": null, "addr:city": null, "source": null, "name:id": null, "osm_id": 3088523373, "osm_type": "nodes" }, "geometry": { "type": "Point", "coordinates": [ 95.2946192, 5.5653371 ] } },
{ "type": "Feature", "properties": { "name": null, "name:en": null, "amenity": "ferry_terminal", "building": null, "port": null, "operator:type": null, "addr:full": null, "addr:city": null, "source": null, "name:id": null, "osm_id": 4243522379, "osm_type": "nodes" }, "geometry": { "type": "Point", "coordinates": [ 131.7138821, -7.1508494 ] } },
{ "type": "Feature", "properties": { "name": "Dermaga Kahyapu", "name:en": null, "amenity": "ferry_terminal", "building": null, "port": null, "operator:type": null, "addr:full": null, "addr:city": null, "source": null, "name:id": null, "osm_id": 1718100114, "osm_type": "nodes" }, "geometry": { "type": "Point", "coordinates": [ 102.3798966, -5.4284433 ] } },
{ "type": "Feature", "properties": { "name": null, "name:en": null, "amenity": "ferry_terminal", "building": null, "port": null, "operator:type": null, "addr:full": null, "addr:city": null, "source": null, "name:id": null, "osm_id": 5563906683, "osm_type": "nodes" }, "geometry": { "type": "Point", "coordinates": [ 114.1957736, -2.8674152 ] } },
{ "type": "Feature", "properties": { "name": null, "name:en": null, "amenity": "ferry_terminal", "building": null, "port": null, "operator:type": null, "addr:full": null, "addr:city": null, "source": null, "name:id": null, "osm_id": 10259636841, "osm_type": "nodes" }, "geometry": { "type": "Point", "coordinates": [ 114.1887863, -2.8693786 ] } },
{ "type": "Feature", "properties": { "name": "Banda Aceh", "name:en": null, "amenity": "ferry_terminal", "building": null, "port": null, "operator:type": null, "addr:full": null, "addr:city": null, "source": null, "name:id": null, "osm_id": 7678537831, "osm_type": "nodes" }, "geometry": { "type": "Point", "coordinates": [ 95.2946802, 5.5663158 ] } },
{ "type": "Feature", "properties": { "name": "Ferry Senggigi", "name:en": null, "amenity": "ferry_terminal", "building": null, "port": null, "operator:type": null, "addr:full": null, "addr:city": null, "source": "survey", "name:id": null, "osm_id": 5684266592, "osm_type": "nodes" }, "geometry": { "type": "Point", "coordinates": [ 116.0447825, -8.4986443 ] } },
{ "type": "Feature", "properties": { "name": null, "name:en": null, "amenity": "ferry_terminal", "building": null, "port": null, "operator:type": null, "addr:full": null, "addr:city": null, "source": null, "name:id": null, "osm_id": 6987212159, "osm_type": "nodes" }, "geometry": { "type": "Point", "coordinates": [ 127.9470563, -3.6696443 ] } },
{ "type": "Feature", "properties": { "name": null, "name:en": null, "amenity": "ferry_terminal", "building": null, "port": null, "operator:type": null, "addr:full": null, "addr:city": null, "source": null, "name:id": null, "osm_id": 6986432608, "osm_type": "nodes" }, "geometry": { "type": "Point", "coordinates": [ 128.17607670000001, -3.5832497 ] } },
{ "type": "Feature", "properties": { "name": null, "name:en": null, "amenity": "ferry_terminal", "building": null, "port": null, "operator:type": null, "addr:full": null, "addr:city": null, "source": null, "name:id": null, "osm_id": 6979663820, "osm_type": "nodes" }, "geometry": { "type": "Point", "coordinates": [ 128.3353651, -3.5504884 ] } },
{ "type": "Feature", "properties": { "name": null, "name:en": null, "amenity": "ferry_terminal", "building": null, "port": null, "operator:type": null, "addr:full": null, "addr:city": null, "source": null, "name:id": null, "osm_id": 6979331810, "osm_type": "nodes" }, "geometry": { "type": "Point", "coordinates": [ 125.6105899, -8.2222817 ] } },
{ "type": "Feature", "properties": { "name": null, "name:en": null, "amenity": "ferry_terminal", "building": null, "port": null, "operator:type": null, "addr:full": null, "addr:city": null, "source": null, "name:id": null, "osm_id": 4689757826, "osm_type": "nodes" }, "geometry": { "type": "Point", "coordinates": [ 104.6193879, -5.5003817 ] } },
{ "type": "Feature", "properties": { "name": null, "name:en": null, "amenity": "ferry_terminal", "building": null, "port": null, "operator:type": null, "addr:full": null, "addr:city": null, "source": null, "name:id": null, "osm_id": 11283305196, "osm_type": "nodes" }, "geometry": { "type": "Point", "coordinates": [ 114.7697708, -2.9756615 ] } },
{ "type": "Feature", "properties": { "name": null, "name:en": null, "amenity": "ferry_terminal", "building": null, "port": null, "operator:type": null, "addr:full": null, "addr:city": null, "source": null, "name:id": null, "osm_id": 11283305197, "osm_type": "nodes" }, "geometry": { "type": "Point", "coordinates": [ 114.7706988, -2.9797671 ] } },
{ "type": "Feature", "properties": { "name": null, "name:en": null, "amenity": "ferry_terminal", "building": null, "port": null, "operator:type": null, "addr:full": null, "addr:city": null, "source": null, "name:id": null, "osm_id": 11283305198, "osm_type": "nodes" }, "geometry": { "type": "Point", "coordinates": [ 114.7669303, -2.9749506 ] } },
{ "type": "Feature", "properties": { "name": null, "name:en": null, "amenity": "ferry_terminal", "building": null, "port": null, "operator:type": null, "addr:full": null, "addr:city": null, "source": null, "name:id": null, "osm_id": 2905365290, "osm_type": "nodes" }, "geometry": { "type": "Point", "coordinates": [ 116.1003771, -8.3935809 ] } },
{ "type": "Feature", "properties": { "name": null, "name:en": null, "amenity": "ferry_terminal", "building": null, "port": null, "operator:type": null, "addr:full": null, "addr:city": null, "source": null, "name:id": null, "osm_id": 12300603213, "osm_type": "nodes" }, "geometry": { "type": "Point", "coordinates": [ 102.1922634, 1.1038539 ] } },
{ "type": "Feature", "properties": { "name": null, "name:en": null, "amenity": "ferry_terminal", "building": null, "port": null, "operator:type": null, "addr:full": null, "addr:city": null, "source": null, "name:id": null, "osm_id": 12300579902, "osm_type": "nodes" }, "geometry": { "type": "Point", "coordinates": [ 102.2091124, 1.0488921 ] } },
{ "type": "Feature", "properties": { "name": null, "name:en": null, "amenity": "ferry_terminal", "building": null, "port": null, "operator:type": null, "addr:full": null, "addr:city": null, "source": null, "name:id": null, "osm_id": 11276410961, "osm_type": "nodes" }, "geometry": { "type": "Point", "coordinates": [ 105.584194, -5.8000211 ] } },
{ "type": "Feature", "properties": { "name": null, "name:en": null, "amenity": "ferry_terminal", "building": null, "port": null, "operator:type": null, "addr:full": null, "addr:city": null, "source": null, "name:id": null, "osm_id": 11276410962, "osm_type": "nodes" }, "geometry": { "type": "Point", "coordinates": [ 105.512943, -5.9358657 ] } },
{ "type": "Feature", "properties": { "name": null, "name:en": null, "amenity": "ferry_terminal", "building": null, "port": null, "operator:type": null, "addr:full": null, "addr:city": null, "source": null, "name:id": null, "osm_id": 5242703970, "osm_type": "nodes" }, "geometry": { "type": "Point", "coordinates": [ 102.7702042, -1.6701488 ] } },
{ "type": "Feature", "properties": { "name": "Pelabuhan Kokas", "name:en": "Kokas port", "amenity": "ferry_terminal", "building": null, "port": null, "operator:type": null, "addr:full": null, "addr:city": null, "source": null, "name:id": null, "osm_id": 10913822494, "osm_type": "nodes" }, "geometry": { "type": "Point", "coordinates": [ 132.4416448, -2.6988252 ] } },
{ "type": "Feature", "properties": { "name": null, "name:en": null, "amenity": "ferry_terminal", "building": null, "port": null, "operator:type": null, "addr:full": null, "addr:city": null, "source": null, "name:id": null, "osm_id": 3317678073, "osm_type": "nodes" }, "geometry": { "type": "Point", "coordinates": [ 121.9484178, -4.9092436 ] } },
{ "type": "Feature", "properties": { "name": null, "name:en": null, "amenity": "ferry_terminal", "building": null, "port": null, "operator:type": null, "addr:full": null, "addr:city": null, "source": null, "name:id": null, "osm_id": 5516709434, "osm_type": "nodes" }, "geometry": { "type": "Point", "coordinates": [ 109.2067731, 1.3410961 ] } },
{ "type": "Feature", "properties": { "name": null, "name:en": null, "amenity": "ferry_terminal", "building": null, "port": null, "operator:type": null, "addr:full": null, "addr:city": null, "source": null, "name:id": null, "osm_id": 586738591, "osm_type": "nodes" }, "geometry": { "type": "Point", "coordinates": [ 109.2007593, 1.3499964 ] } },
{ "type": "Feature", "properties": { "name": "Pelabuhan Yellu", "name:en": "Yellu port", "amenity": "ferry_terminal", "building": null, "port": null, "operator:type": null, "addr:full": null, "addr:city": null, "source": null, "name:id": null, "osm_id": 11834828869, "osm_type": "nodes" }, "geometry": { "type": "Point", "coordinates": [ 130.4140333, -2.0569078 ] } },
{ "type": "Feature", "properties": { "name": null, "name:en": null, "amenity": "ferry_terminal", "building": null, "port": null, "operator:type": null, "addr:full": null, "addr:city": null, "source": null, "name:id": null, "osm_id": 5917641615, "osm_type": "nodes" }, "geometry": { "type": "Point", "coordinates": [ 116.2641571, -3.3337357 ] } },
{ "type": "Feature", "properties": { "name": "Daruba Ferry Terminal", "name:en": null, "amenity": "ferry_terminal", "building": null, "port": null, "operator:type": null, "addr:full": null, "addr:city": null, "source": null, "name:id": null, "osm_id": 1989691035, "osm_type": "nodes" }, "geometry": { "type": "Point", "coordinates": [ 128.288958799999989, 2.0486356 ] } },
{ "type": "Feature", "properties": { "name": null, "name:en": null, "amenity": "ferry_terminal", "building": null, "port": null, "operator:type": null, "addr:full": null, "addr:city": null, "source": null, "name:id": null, "osm_id": 2153933619, "osm_type": "nodes" }, "geometry": { "type": "Point", "coordinates": [ 100.2078811, -2.7866252 ] } },
{ "type": "Feature", "properties": { "name": "Pertamina Jetty", "name:en": null, "amenity": "ferry_terminal", "building": null, "port": null, "operator:type": null, "addr:full": null, "addr:city": null, "source": "GPS", "name:id": null, "osm_id": 2105732724, "osm_type": "nodes" }, "geometry": { "type": "Point", "coordinates": [ 125.548579, -8.5413647 ] } },
{ "type": "Feature", "properties": { "name": null, "name:en": null, "amenity": "ferry_terminal", "building": null, "port": null, "operator:type": null, "addr:full": null, "addr:city": null, "source": null, "name:id": null, "osm_id": 12172090911, "osm_type": "nodes" }, "geometry": { "type": "Point", "coordinates": [ 101.4032516, 0.1550105 ] } },
{ "type": "Feature", "properties": { "name": null, "name:en": null, "amenity": "ferry_terminal", "building": null, "port": null, "operator:type": null, "addr:full": null, "addr:city": null, "source": null, "name:id": null, "osm_id": 12172090912, "osm_type": "nodes" }, "geometry": { "type": "Point", "coordinates": [ 101.4044001, 0.1548093 ] } },
{ "type": "Feature", "properties": { "name": null, "name:en": null, "amenity": "ferry_terminal", "building": null, "port": null, "operator:type": null, "addr:full": null, "addr:city": null, "source": null, "name:id": null, "osm_id": 4619176559, "osm_type": "nodes" }, "geometry": { "type": "Point", "coordinates": [ 102.0612348, 0.8242851 ] } },
{ "type": "Feature", "properties": { "name": null, "name:en": null, "amenity": "ferry_terminal", "building": null, "port": null, "operator:type": null, "addr:full": null, "addr:city": null, "source": null, "name:id": null, "osm_id": 8509373770, "osm_type": "nodes" }, "geometry": { "type": "Point", "coordinates": [ 114.5391709, -3.3505168 ] } },
{ "type": "Feature", "properties": { "name": null, "name:en": null, "amenity": "ferry_terminal", "building": null, "port": null, "operator:type": null, "addr:full": null, "addr:city": null, "source": null, "name:id": null, "osm_id": 8041366163, "osm_type": "nodes" }, "geometry": { "type": "Point", "coordinates": [ 99.2469209, -1.7789575 ] } },
{ "type": "Feature", "properties": { "name": "Pelabuhan Laurentius Say Maumere", "name:en": "Laurentius Say Maumere Port", "amenity": "ferry_terminal", "building": null, "port": null, "operator:type": null, "addr:full": null, "addr:city": null, "source": null, "name:id": null, "osm_id": 1493574199, "osm_type": "nodes" }, "geometry": { "type": "Point", "coordinates": [ 122.2198072, -8.6146073 ] } },
{ "type": "Feature", "properties": { "name": null, "name:en": null, "amenity": "ferry_terminal", "building": null, "port": null, "operator:type": null, "addr:full": null, "addr:city": null, "source": null, "name:id": null, "osm_id": 6784562345, "osm_type": "nodes" }, "geometry": { "type": "Point", "coordinates": [ 131.38184050000001, -4.0003806 ] } },
{ "type": "Feature", "properties": { "name": "Pelabuhan Mendo", "name:en": null, "amenity": "ferry_terminal", "building": null, "port": null, "operator:type": null, "addr:full": null, "addr:city": null, "source": null, "name:id": null, "osm_id": 1278561272, "osm_type": "nodes" }, "geometry": { "type": "Point", "coordinates": [ 105.8801476, -2.1629504 ] } },
{ "type": "Feature", "properties": { "name": "Tanjung Balai Karimun", "name:en": null, "amenity": "ferry_terminal", "building": null, "port": null, "operator:type": null, "addr:full": null, "addr:city": null, "source": null, "name:id": "Tanjung Balai Karimun", "osm_id": 7062644585, "osm_type": "nodes" }, "geometry": { "type": "Point", "coordinates": [ 103.4360636, 0.9880712 ] } },
{ "type": "Feature", "properties": { "name": "Pelabuhan Belawan", "name:en": "Belawan Port", "amenity": "ferry_terminal", "building": null, "port": null, "operator:type": null, "addr:full": null, "addr:city": null, "source": null, "name:id": null, "osm_id": 7731823284, "osm_type": "nodes" }, "geometry": { "type": "Point", "coordinates": [ 98.6806517, 3.7780705 ] } },
{ "type": "Feature", "properties": { "name": "Pelabuhan Batu Ampar Batam", "name:en": "Batu Ampar Batam Port", "amenity": "ferry_terminal", "building": null, "port": null, "operator:type": null, "addr:full": null, "addr:city": null, "source": null, "name:id": null, "osm_id": 9571235006, "osm_type": "nodes" }, "geometry": { "type": "Point", "coordinates": [ 103.9993769, 1.1648937 ] } },
{ "type": "Feature", "properties": { "name": null, "name:en": null, "amenity": "ferry_terminal", "building": null, "port": null, "operator:type": null, "addr:full": null, "addr:city": null, "source": null, "name:id": null, "osm_id": 12300568741, "osm_type": "nodes" }, "geometry": { "type": "Point", "coordinates": [ 102.2057977, 1.05685 ] } },
{ "type": "Feature", "properties": { "name": null, "name:en": null, "amenity": "ferry_terminal", "building": null, "port": null, "operator:type": null, "addr:full": null, "addr:city": null, "source": null, "name:id": null, "osm_id": 12300579903, "osm_type": "nodes" }, "geometry": { "type": "Point", "coordinates": [ 102.2545696, 1.0576335 ] } },
{ "type": "Feature", "properties": { "name": null, "name:en": null, "amenity": "ferry_terminal", "building": null, "port": null, "operator:type": null, "addr:full": null, "addr:city": null, "source": null, "name:id": null, "osm_id": 12300664522, "osm_type": "nodes" }, "geometry": { "type": "Point", "coordinates": [ 102.3153084, 1.4078543 ] } },
{ "type": "Feature", "properties": { "name": "Pelabuhan Semayang Balikpapan", "name:en": "Semayang Balikpapan Port", "amenity": "ferry_terminal", "building": null, "port": null, "operator:type": null, "addr:full": null, "addr:city": null, "source": null, "name:id": null, "osm_id": 5828392884, "osm_type": "nodes" }, "geometry": { "type": "Point", "coordinates": [ 116.8054346, -1.2734299 ] } },
{ "type": "Feature", "properties": { "name": "Pelabuhan Batanjung", "name:en": null, "amenity": "ferry_terminal", "building": null, "port": null, "operator:type": null, "addr:full": null, "addr:city": null, "source": null, "name:id": null, "osm_id": 12178340219, "osm_type": "nodes" }, "geometry": { "type": "Point", "coordinates": [ 114.2569435, -3.3479202 ] } },
{ "type": "Feature", "properties": { "name": null, "name:en": null, "amenity": "ferry_terminal", "building": null, "port": null, "operator:type": null, "addr:full": null, "addr:city": null, "source": null, "name:id": null, "osm_id": 12293547505, "osm_type": "nodes" }, "geometry": { "type": "Point", "coordinates": [ 102.3056295, 1.3993115 ] } },
{ "type": "Feature", "properties": { "name": "Pelabuhan Pantoloan", "name:en": "Pantoloan Port", "amenity": "ferry_terminal", "building": null, "port": null, "operator:type": null, "addr:full": null, "addr:city": null, "source": null, "name:id": null, "osm_id": 2419513902, "osm_type": "nodes" }, "geometry": { "type": "Point", "coordinates": [ 119.8560433, -0.7112336 ] } },
{ "type": "Feature", "properties": { "name": "Pelabuhan ferry Telaga Punggur", "name:en": "Telaga Punggur ferry port", "amenity": "ferry_terminal", "building": null, "port": null, "operator:type": null, "addr:full": null, "addr:city": null, "source": null, "name:id": null, "osm_id": 7717932286, "osm_type": "nodes" }, "geometry": { "type": "Point", "coordinates": [ 104.1320733, 1.0333693 ] } },
{ "type": "Feature", "properties": { "name": "Pelabuhan Tanjung Emas Semarang", "name:en": "Tanjung Emas Semarang Port", "amenity": "ferry_terminal", "building": null, "port": null, "operator:type": null, "addr:full": null, "addr:city": null, "source": null, "name:id": null, "osm_id": 2085925705, "osm_type": "nodes" }, "geometry": { "type": "Point", "coordinates": [ 110.4243042, -6.9477594 ] } },
{ "type": "Feature", "properties": { "name": null, "name:en": null, "amenity": "ferry_terminal", "building": null, "port": null, "operator:type": null, "addr:full": null, "addr:city": null, "source": null, "name:id": null, "osm_id": 11268294914, "osm_type": "nodes" }, "geometry": { "type": "Point", "coordinates": [ 115.9326031, -3.6133286 ] } },
{ "type": "Feature", "properties": { "name": "Pelabuhan Kalabahi", "name:en": "Kalabahi port", "amenity": "ferry_terminal", "building": null, "port": null, "operator:type": null, "addr:full": null, "addr:city": null, "source": null, "name:id": null, "osm_id": 10583872532, "osm_type": "nodes" }, "geometry": { "type": "Point", "coordinates": [ 124.5164033, -8.2197007 ] } },
{ "type": "Feature", "properties": { "name": "pelabuhan pangkalan jernih", "name:en": null, "amenity": "ferry_terminal", "building": null, "port": null, "operator:type": null, "addr:full": null, "addr:city": null, "source": null, "name:id": null, "osm_id": 6885291951, "osm_type": "nodes" }, "geometry": { "type": "Point", "coordinates": [ 103.4557337, 0.9598406 ] } },
{ "type": "Feature", "properties": { "name": null, "name:en": null, "amenity": "ferry_terminal", "building": null, "port": null, "operator:type": null, "addr:full": null, "addr:city": null, "source": null, "name:id": null, "osm_id": 6380897659, "osm_type": "nodes" }, "geometry": { "type": "Point", "coordinates": [ 102.8962684, 0.9587705 ] } },
{ "type": "Feature", "properties": { "name": "Pelabuhan ferry Uebone", "name:en": null, "amenity": "ferry_terminal", "building": null, "port": null, "operator:type": null, "addr:full": null, "addr:city": null, "source": null, "name:id": null, "osm_id": 10573959283, "osm_type": "nodes" }, "geometry": { "type": "Point", "coordinates": [ 121.6594321, -0.912779 ] } },
{ "type": "Feature", "properties": { "name": null, "name:en": null, "amenity": "ferry_terminal", "building": null, "port": null, "operator:type": null, "addr:full": null, "addr:city": null, "source": null, "name:id": null, "osm_id": 409177973, "osm_type": "nodes" }, "geometry": { "type": "Point", "coordinates": [ 116.0441407, -8.352975 ] } },
{ "type": "Feature", "properties": { "name": "Pelabuhan Tanjung Perak", "name:en": "Tanjung Perak port", "amenity": "ferry_terminal", "building": null, "port": null, "operator:type": null, "addr:full": null, "addr:city": null, "source": null, "name:id": null, "osm_id": 10583210292, "osm_type": "nodes" }, "geometry": { "type": "Point", "coordinates": [ 112.7330655, -7.1964103 ] } },
{ "type": "Feature", "properties": { "name": "Pelabuhan Tanjung Priok", "name:en": "Tanjung Priok Port", "amenity": "ferry_terminal", "building": null, "port": null, "operator:type": null, "addr:full": null, "addr:city": null, "source": null, "name:id": null, "osm_id": 2794303906, "osm_type": "nodes" }, "geometry": { "type": "Point", "coordinates": [ 106.8824532, -6.1037982 ] } },
{ "type": "Feature", "properties": { "name": "Pelabuhan Dwikora Pontianak", "name:en": "Dwikora Pontianak Port", "amenity": "ferry_terminal", "building": null, "port": null, "operator:type": null, "addr:full": null, "addr:city": null, "source": null, "name:id": null, "osm_id": 1848302390, "osm_type": "nodes" }, "geometry": { "type": "Point", "coordinates": [ 109.3375052, -0.0197813 ] } },
{ "type": "Feature", "properties": { "name": "Pelabuhan Tanjung Batu", "name:en": "Tanjung Batu Port", "amenity": "ferry_terminal", "building": null, "port": null, "operator:type": null, "addr:full": null, "addr:city": null, "source": null, "name:id": null, "osm_id": 12182413173, "osm_type": "nodes" }, "geometry": { "type": "Point", "coordinates": [ 107.5484884, -2.8871839 ] } },
{ "type": "Feature", "properties": { "name": "Pelabuhan Waingapu", "name:en": "Waingapu port", "amenity": "ferry_terminal", "building": null, "port": null, "operator:type": null, "addr:full": null, "addr:city": null, "source": null, "name:id": null, "osm_id": 7823056694, "osm_type": "nodes" }, "geometry": { "type": "Point", "coordinates": [ 120.2507833, -9.6374878 ] } },
{ "type": "Feature", "properties": { "name": "Pelabuhan Tenau Kupang", "name:en": "Tenau Kupang Port", "amenity": "ferry_terminal", "building": null, "port": null, "operator:type": null, "addr:full": null, "addr:city": null, "source": null, "name:id": null, "osm_id": 10578224066, "osm_type": "nodes" }, "geometry": { "type": "Point", "coordinates": [ 123.5268797, -10.1934016 ] } },
{ "type": "Feature", "properties": { "name": "Pelabuhan Ippi Ende", "name:en": "Ippi Ende Port", "amenity": "ferry_terminal", "building": null, "port": null, "operator:type": null, "addr:full": null, "addr:city": null, "source": null, "name:id": null, "osm_id": 10583798951, "osm_type": "nodes" }, "geometry": { "type": "Point", "coordinates": [ 121.6633964, -8.85493 ] } },
{ "type": "Feature", "properties": { "name": "Waikelo", "name:en": null, "amenity": "ferry_terminal", "building": null, "port": null, "operator:type": null, "addr:full": null, "addr:city": null, "source": null, "name:id": null, "osm_id": 7823111924, "osm_type": "nodes" }, "geometry": { "type": "Point", "coordinates": [ 119.2209972, -9.3884571 ] } },
{ "type": "Feature", "properties": { "name": "Pelabuhan Bima", "name:en": "Bima port", "amenity": "ferry_terminal", "building": null, "port": null, "operator:type": null, "addr:full": null, "addr:city": null, "source": null, "name:id": null, "osm_id": 9848807595, "osm_type": "nodes" }, "geometry": { "type": "Point", "coordinates": [ 118.7129148, -8.4473827 ] } },
{ "type": "Feature", "properties": { "name": null, "name:en": null, "amenity": "ferry_terminal", "building": null, "port": null, "operator:type": null, "addr:full": null, "addr:city": null, "source": null, "name:id": null, "osm_id": 8519542855, "osm_type": "nodes" }, "geometry": { "type": "Point", "coordinates": [ 104.7491355, -3.015212 ] } },
{ "type": "Feature", "properties": { "name": null, "name:en": null, "amenity": "ferry_terminal", "building": null, "port": null, "operator:type": null, "addr:full": null, "addr:city": null, "source": null, "name:id": null, "osm_id": 3318401168, "osm_type": "nodes" }, "geometry": { "type": "Point", "coordinates": [ 121.6659238, -4.8225415 ] } },
{ "type": "Feature", "properties": { "name": null, "name:en": null, "amenity": "ferry_terminal", "building": null, "port": null, "operator:type": null, "addr:full": null, "addr:city": null, "source": null, "name:id": null, "osm_id": 3141913598, "osm_type": "nodes" }, "geometry": { "type": "Point", "coordinates": [ 122.8076252, -4.1101653 ] } },
{ "type": "Feature", "properties": { "name": null, "name:en": null, "amenity": "ferry_terminal", "building": null, "port": null, "operator:type": null, "addr:full": null, "addr:city": null, "source": null, "name:id": null, "osm_id": 3151462264, "osm_type": "nodes" }, "geometry": { "type": "Point", "coordinates": [ 122.7664607, -4.4027167 ] } },
{ "type": "Feature", "properties": { "name": "Pelabuhan Batulicin", "name:en": "Batulicin Port", "amenity": "ferry_terminal", "building": null, "port": null, "operator:type": null, "addr:full": null, "addr:city": null, "source": null, "name:id": null, "osm_id": 12182574311, "osm_type": "nodes" }, "geometry": { "type": "Point", "coordinates": [ 116.0089043, -3.4322332 ] } },
{ "type": "Feature", "properties": { "name": null, "name:en": null, "amenity": "ferry_terminal", "building": null, "port": null, "operator:type": null, "addr:full": null, "addr:city": null, "source": null, "name:id": null, "osm_id": 5333069538, "osm_type": "nodes" }, "geometry": { "type": "Point", "coordinates": [ 110.4147154, -5.8385198 ] } },
{ "type": "Feature", "properties": { "name": "Sibolga", "name:en": null, "amenity": "ferry_terminal", "building": null, "port": null, "operator:type": null, "addr:full": null, "addr:city": null, "source": null, "name:id": null, "osm_id": 6393176496, "osm_type": "nodes" }, "geometry": { "type": "Point", "coordinates": [ 98.7863782, 1.727677 ] } },
{ "type": "Feature", "properties": { "name": null, "name:en": null, "amenity": "ferry_terminal", "building": null, "port": null, "operator:type": null, "addr:full": null, "addr:city": null, "source": null, "name:id": null, "osm_id": 5391591672, "osm_type": "nodes" }, "geometry": { "type": "Point", "coordinates": [ 119.6115996, -4.9168127 ] } },
{ "type": "Feature", "properties": { "name": "Kusamba", "name:en": null, "amenity": "ferry_terminal", "building": null, "port": null, "operator:type": null, "addr:full": null, "addr:city": null, "source": null, "name:id": null, "osm_id": 6585955697, "osm_type": "nodes" }, "geometry": { "type": "Point", "coordinates": [ 115.4563912, -8.5617002 ] } },
{ "type": "Feature", "properties": { "name": "Pelabuhan ferry Kendari", "name:en": "Kendari ferry port", "amenity": "ferry_terminal", "building": null, "port": null, "operator:type": null, "addr:full": null, "addr:city": null, "source": null, "name:id": null, "osm_id": 6382684241, "osm_type": "nodes" }, "geometry": { "type": "Point", "coordinates": [ 122.5792488, -3.9726595 ] } },
{ "type": "Feature", "properties": { "name": "Pelabuhan ferry Jepara", "name:en": "Jepara ferry port", "amenity": "ferry_terminal", "building": null, "port": null, "operator:type": null, "addr:full": null, "addr:city": null, "source": null, "name:id": null, "osm_id": 10585195887, "osm_type": "nodes" }, "geometry": { "type": "Point", "coordinates": [ 110.6472138, -6.5920368 ] } },
{ "type": "Feature", "properties": { "name": null, "name:en": null, "amenity": "ferry_terminal", "building": null, "port": null, "operator:type": null, "addr:full": null, "addr:city": null, "source": null, "name:id": null, "osm_id": 5018091480, "osm_type": "nodes" }, "geometry": { "type": "Point", "coordinates": [ 110.5981635, -5.8445508 ] } },
{ "type": "Feature", "properties": { "name": "Pelabuhan ferry Karimunjawa", "name:en": "Karimumjawa ferry port", "amenity": "ferry_terminal", "building": null, "port": null, "operator:type": null, "addr:full": null, "addr:city": null, "source": null, "name:id": null, "osm_id": 493349217, "osm_type": "nodes" }, "geometry": { "type": "Point", "coordinates": [ 110.4397138, -5.8845955 ] } },
{ "type": "Feature", "properties": { "name": "Pelabuhan Carik", "name:en": null, "amenity": "ferry_terminal", "building": null, "port": null, "operator:type": null, "addr:full": null, "addr:city": null, "source": null, "name:id": null, "osm_id": 3071854185, "osm_type": "nodes" }, "geometry": { "type": "Point", "coordinates": [ 116.4269117, -8.2223485 ] } },
{ "type": "Feature", "properties": { "name": "Pelabuhan ferry Kolaka", "name:en": "Kolaka ferry port", "amenity": "ferry_terminal", "building": null, "port": null, "operator:type": null, "addr:full": null, "addr:city": null, "source": null, "name:id": null, "osm_id": 5679040167, "osm_type": "nodes" }, "geometry": { "type": "Point", "coordinates": [ 121.5848271, -4.0581463 ] } },
{ "type": "Feature", "properties": { "name": null, "name:en": null, "amenity": "ferry_terminal", "building": null, "port": null, "operator:type": null, "addr:full": null, "addr:city": null, "source": null, "name:id": null, "osm_id": 5239325592, "osm_type": "nodes" }, "geometry": { "type": "Point", "coordinates": [ 102.877948, -1.6712164 ] } },
{ "type": "Feature", "properties": { "name": null, "name:en": null, "amenity": "ferry_terminal", "building": null, "port": null, "operator:type": null, "addr:full": null, "addr:city": null, "source": null, "name:id": null, "osm_id": 7888896379, "osm_type": "nodes" }, "geometry": { "type": "Point", "coordinates": [ 102.876918, -1.6580148 ] } },
{ "type": "Feature", "properties": { "name": null, "name:en": null, "amenity": "ferry_terminal", "building": null, "port": null, "operator:type": null, "addr:full": null, "addr:city": null, "source": null, "name:id": null, "osm_id": 5239325553, "osm_type": "nodes" }, "geometry": { "type": "Point", "coordinates": [ 102.880396, -1.7062404 ] } },
{ "type": "Feature", "properties": { "name": null, "name:en": null, "amenity": "ferry_terminal", "building": null, "port": null, "operator:type": null, "addr:full": null, "addr:city": null, "source": null, "name:id": null, "osm_id": 6476870623, "osm_type": "nodes" }, "geometry": { "type": "Point", "coordinates": [ 103.9663518, -1.4578004 ] } },
{ "type": "Feature", "properties": { "name": null, "name:en": null, "amenity": "ferry_terminal", "building": null, "port": null, "operator:type": null, "addr:full": null, "addr:city": null, "source": null, "name:id": null, "osm_id": 7591285053, "osm_type": "nodes" }, "geometry": { "type": "Point", "coordinates": [ 103.0664694, -1.7001891 ] } },
{ "type": "Feature", "properties": { "name": null, "name:en": null, "amenity": "ferry_terminal", "building": null, "port": null, "operator:type": null, "addr:full": null, "addr:city": null, "source": null, "name:id": null, "osm_id": 7122071010, "osm_type": "nodes" }, "geometry": { "type": "Point", "coordinates": [ 105.4613542, -4.047813 ] } },
{ "type": "Feature", "properties": { "name": null, "name:en": null, "amenity": "ferry_terminal", "building": null, "port": null, "operator:type": null, "addr:full": null, "addr:city": null, "source": null, "name:id": null, "osm_id": 6250636742, "osm_type": "nodes" }, "geometry": { "type": "Point", "coordinates": [ 105.7718695, -4.2910234 ] } },
{ "type": "Feature", "properties": { "name": null, "name:en": null, "amenity": "ferry_terminal", "building": null, "port": null, "operator:type": null, "addr:full": null, "addr:city": null, "source": null, "name:id": null, "osm_id": 6136199228, "osm_type": "nodes" }, "geometry": { "type": "Point", "coordinates": [ 105.7487718, -4.1454621 ] } },
{ "type": "Feature", "properties": { "name": null, "name:en": null, "amenity": "ferry_terminal", "building": null, "port": null, "operator:type": null, "addr:full": null, "addr:city": null, "source": null, "name:id": null, "osm_id": 6136199236, "osm_type": "nodes" }, "geometry": { "type": "Point", "coordinates": [ 105.7421175, -4.1386529 ] } },
{ "type": "Feature", "properties": { "name": "Sikabaluan", "name:en": null, "amenity": "ferry_terminal", "building": null, "port": null, "operator:type": null, "addr:full": null, "addr:city": null, "source": null, "name:id": null, "osm_id": 8041366190, "osm_type": "nodes" }, "geometry": { "type": "Point", "coordinates": [ 98.9570911, -1.0807143 ] } },
{ "type": "Feature", "properties": { "name": "jetty", "name:en": "Dermaga Ambu_ambu", "amenity": "ferry_terminal", "building": null, "port": null, "operator:type": null, "addr:full": null, "addr:city": null, "source": null, "name:id": null, "osm_id": 3844119748, "osm_type": "nodes" }, "geometry": { "type": "Point", "coordinates": [ 99.1969085, -1.5613257 ] } },
{ "type": "Feature", "properties": { "name": "Tuapejat", "name:en": null, "amenity": "ferry_terminal", "building": null, "port": null, "operator:type": null, "addr:full": null, "addr:city": null, "source": null, "name:id": null, "osm_id": 8041366328, "osm_type": "nodes" }, "geometry": { "type": "Point", "coordinates": [ 99.592947, -2.0307913 ] } },
{ "type": "Feature", "properties": { "name": null, "name:en": null, "amenity": "ferry_terminal", "building": null, "port": null, "operator:type": null, "addr:full": null, "addr:city": null, "source": null, "name:id": null, "osm_id": 7560404106, "osm_type": "nodes" }, "geometry": { "type": "Point", "coordinates": [ 104.6436541, -5.7320697 ] } },
{ "type": "Feature", "properties": { "name": "Dermaga 3", "name:en": null, "amenity": "ferry_terminal", "building": null, "port": null, "operator:type": null, "addr:full": null, "addr:city": null, "source": null, "name:id": null, "osm_id": 4355525078, "osm_type": "nodes" }, "geometry": { "type": "Point", "coordinates": [ 105.9939194, -5.9294562 ] } },
{ "type": "Feature", "properties": { "name": "Dermaga Pangkalan Sakti", "name:en": null, "amenity": "ferry_terminal", "building": null, "port": null, "operator:type": null, "addr:full": null, "addr:city": null, "source": null, "name:id": null, "osm_id": 9442457320, "osm_type": "nodes" }, "geometry": { "type": "Point", "coordinates": [ 105.2603844, -2.6474371 ] } },
{ "type": "Feature", "properties": { "name": null, "name:en": null, "amenity": "ferry_terminal", "building": null, "port": null, "operator:type": null, "addr:full": null, "addr:city": null, "source": null, "name:id": null, "osm_id": 4421797432, "osm_type": "nodes" }, "geometry": { "type": "Point", "coordinates": [ 103.4124444, -4.8420984 ] } },
{ "type": "Feature", "properties": { "name": null, "name:en": null, "amenity": "ferry_terminal", "building": null, "port": null, "operator:type": null, "addr:full": null, "addr:city": null, "source": null, "name:id": null, "osm_id": 7490522254, "osm_type": "nodes" }, "geometry": { "type": "Point", "coordinates": [ 112.4850745, -1.9226905 ] } },
{ "type": "Feature", "properties": { "name": "Nusa Penida", "name:en": null, "amenity": "ferry_terminal", "building": null, "port": null, "operator:type": null, "addr:full": null, "addr:city": null, "source": null, "name:id": null, "osm_id": 2483719537, "osm_type": "nodes" }, "geometry": { "type": "Point", "coordinates": [ 115.5464651, -8.6745014 ] } },
{ "type": "Feature", "properties": { "name": "Nusa Lembongan", "name:en": null, "amenity": "ferry_terminal", "building": null, "port": null, "operator:type": null, "addr:full": null, "addr:city": null, "source": null, "name:id": null, "osm_id": 6039573832, "osm_type": "nodes" }, "geometry": { "type": "Point", "coordinates": [ 115.4462998, -8.6778656 ] } },
{ "type": "Feature", "properties": { "name": "Dermaga", "name:en": null, "amenity": "ferry_terminal", "building": null, "port": null, "operator:type": null, "addr:full": null, "addr:city": null, "source": null, "name:id": null, "osm_id": 2910273316, "osm_type": "nodes" }, "geometry": { "type": "Point", "coordinates": [ 119.0368703, -8.5762453 ] } },
{ "type": "Feature", "properties": { "name": null, "name:en": null, "amenity": "ferry_terminal", "building": null, "port": null, "operator:type": null, "addr:full": null, "addr:city": null, "source": null, "name:id": null, "osm_id": 8380982690, "osm_type": "nodes" }, "geometry": { "type": "Point", "coordinates": [ 119.4302003, -5.1897304 ] } },
{ "type": "Feature", "properties": { "name": null, "name:en": null, "amenity": "ferry_terminal", "building": null, "port": null, "operator:type": null, "addr:full": null, "addr:city": null, "source": null, "name:id": null, "osm_id": 9047818403, "osm_type": "nodes" }, "geometry": { "type": "Point", "coordinates": [ 114.7116629, -3.0554104 ] } },
{ "type": "Feature", "properties": { "name": null, "name:en": null, "amenity": "ferry_terminal", "building": null, "port": null, "operator:type": null, "addr:full": null, "addr:city": null, "source": null, "name:id": null, "osm_id": 6330305341, "osm_type": "nodes" }, "geometry": { "type": "Point", "coordinates": [ 114.6373845, -3.0863266 ] } },
{ "type": "Feature", "properties": { "name": null, "name:en": null, "amenity": "ferry_terminal", "building": null, "port": null, "operator:type": null, "addr:full": null, "addr:city": null, "source": null, "name:id": null, "osm_id": 8381398588, "osm_type": "nodes" }, "geometry": { "type": "Point", "coordinates": [ 119.4044033, -5.1376146 ] } },
{ "type": "Feature", "properties": { "name": null, "name:en": null, "amenity": "ferry_terminal", "building": null, "port": null, "operator:type": null, "addr:full": null, "addr:city": null, "source": null, "name:id": null, "osm_id": 8381398602, "osm_type": "nodes" }, "geometry": { "type": "Point", "coordinates": [ 119.3941611, -5.1369537 ] } },
{ "type": "Feature", "properties": { "name": null, "name:en": null, "amenity": "ferry_terminal", "building": null, "port": null, "operator:type": null, "addr:full": null, "addr:city": null, "source": null, "name:id": null, "osm_id": 8392842716, "osm_type": "nodes" }, "geometry": { "type": "Point", "coordinates": [ 114.7912091, -3.4886224 ] } },
{ "type": "Feature", "properties": { "name": null, "name:en": null, "amenity": "ferry_terminal", "building": null, "port": null, "operator:type": null, "addr:full": null, "addr:city": null, "source": null, "name:id": null, "osm_id": 8392978837, "osm_type": "nodes" }, "geometry": { "type": "Point", "coordinates": [ 114.7916676, -3.4903559 ] } },
{ "type": "Feature", "properties": { "name": null, "name:en": null, "amenity": "ferry_terminal", "building": null, "port": null, "operator:type": null, "addr:full": null, "addr:city": null, "source": null, "name:id": null, "osm_id": 8474376401, "osm_type": "nodes" }, "geometry": { "type": "Point", "coordinates": [ 114.5675493, -3.2894411 ] } },
{ "type": "Feature", "properties": { "name": null, "name:en": null, "amenity": "ferry_terminal", "building": null, "port": null, "operator:type": null, "addr:full": null, "addr:city": null, "source": null, "name:id": null, "osm_id": 7376220169, "osm_type": "nodes" }, "geometry": { "type": "Point", "coordinates": [ 114.5606512, -3.3434703 ] } },
{ "type": "Feature", "properties": { "name": null, "name:en": null, "amenity": "ferry_terminal", "building": null, "port": null, "operator:type": null, "addr:full": null, "addr:city": null, "source": null, "name:id": null, "osm_id": 8508896583, "osm_type": "nodes" }, "geometry": { "type": "Point", "coordinates": [ 114.5635373, -3.2547303 ] } },
{ "type": "Feature", "properties": { "name": null, "name:en": null, "amenity": "ferry_terminal", "building": null, "port": null, "operator:type": null, "addr:full": null, "addr:city": null, "source": null, "name:id": null, "osm_id": 5608821999, "osm_type": "nodes" }, "geometry": { "type": "Point", "coordinates": [ 114.3857465, -3.0263372 ] } },
{ "type": "Feature", "properties": { "name": null, "name:en": null, "amenity": "ferry_terminal", "building": null, "port": null, "operator:type": null, "addr:full": null, "addr:city": null, "source": null, "name:id": null, "osm_id": 8381258885, "osm_type": "nodes" }, "geometry": { "type": "Point", "coordinates": [ 119.4798048, -5.1232617 ] } },
{ "type": "Feature", "properties": { "name": null, "name:en": null, "amenity": "ferry_terminal", "building": null, "port": null, "operator:type": null, "addr:full": null, "addr:city": null, "source": null, "name:id": null, "osm_id": 7643533167, "osm_type": "nodes" }, "geometry": { "type": "Point", "coordinates": [ 119.4668213, -5.1196948 ] } },
{ "type": "Feature", "properties": { "name": "Sukadana", "name:en": null, "amenity": "ferry_terminal", "building": null, "port": null, "operator:type": null, "addr:full": null, "addr:city": null, "source": null, "name:id": null, "osm_id": 6483834572, "osm_type": "nodes" }, "geometry": { "type": "Point", "coordinates": [ 109.9505399, -1.2433751 ] } },
{ "type": "Feature", "properties": { "name": "Gili Gede", "name:en": null, "amenity": "ferry_terminal", "building": null, "port": null, "operator:type": null, "addr:full": null, "addr:city": null, "source": null, "name:id": null, "osm_id": 6699771376, "osm_type": "nodes" }, "geometry": { "type": "Point", "coordinates": [ 115.9258247, -8.740805 ] } },
{ "type": "Feature", "properties": { "name": null, "name:en": null, "amenity": "ferry_terminal", "building": null, "port": null, "operator:type": null, "addr:full": null, "addr:city": null, "source": null, "name:id": null, "osm_id": 10045057957, "osm_type": "nodes" }, "geometry": { "type": "Point", "coordinates": [ 115.2614357, -8.6681454 ] } },
{ "type": "Feature", "properties": { "name": null, "name:en": null, "amenity": "ferry_terminal", "building": null, "port": null, "operator:type": null, "addr:full": null, "addr:city": null, "source": null, "name:id": null, "osm_id": 5573454331, "osm_type": "nodes" }, "geometry": { "type": "Point", "coordinates": [ 107.602229, -2.7836645 ] } },
{ "type": "Feature", "properties": { "name": "Nusa Penida", "name:en": null, "amenity": "ferry_terminal", "building": null, "port": null, "operator:type": null, "addr:full": null, "addr:city": null, "source": null, "name:id": null, "osm_id": 4614809699, "osm_type": "nodes" }, "geometry": { "type": "Point", "coordinates": [ 115.4878111, -8.6797022 ] } },
{ "type": "Feature", "properties": { "name": null, "name:en": null, "amenity": "ferry_terminal", "building": null, "port": null, "operator:type": null, "addr:full": null, "addr:city": null, "source": null, "name:id": null, "osm_id": 6039543377, "osm_type": "nodes" }, "geometry": { "type": "Point", "coordinates": [ 115.4509339, -8.6932235 ] } },
{ "type": "Feature", "properties": { "name": null, "name:en": null, "amenity": "ferry_terminal", "building": null, "port": null, "operator:type": null, "addr:full": null, "addr:city": null, "source": null, "name:id": null, "osm_id": 9505185298, "osm_type": "nodes" }, "geometry": { "type": "Point", "coordinates": [ 114.4933292, -3.4098759 ] } },
{ "type": "Feature", "properties": { "name": null, "name:en": null, "amenity": "ferry_terminal", "building": null, "port": null, "operator:type": null, "addr:full": null, "addr:city": null, "source": null, "name:id": null, "osm_id": 4893657159, "osm_type": "nodes" }, "geometry": { "type": "Point", "coordinates": [ 116.5021263, -8.807741 ] } },
{ "type": "Feature", "properties": { "name": null, "name:en": null, "amenity": "ferry_terminal", "building": null, "port": null, "operator:type": null, "addr:full": null, "addr:city": null, "source": null, "name:id": null, "osm_id": 3896022602, "osm_type": "nodes" }, "geometry": { "type": "Point", "coordinates": [ 116.505536, -8.811943 ] } },
{ "type": "Feature", "properties": { "name": null, "name:en": null, "amenity": "ferry_terminal", "building": null, "port": null, "operator:type": null, "addr:full": null, "addr:city": null, "source": null, "name:id": null, "osm_id": 3896025390, "osm_type": "nodes" }, "geometry": { "type": "Point", "coordinates": [ 116.5114785, -8.8133404 ] } },
{ "type": "Feature", "properties": { "name": "Padang Bai", "name:en": null, "amenity": "ferry_terminal", "building": null, "port": null, "operator:type": null, "addr:full": null, "addr:city": null, "source": null, "name:id": null, "osm_id": 1668113859, "osm_type": "nodes" }, "geometry": { "type": "Point", "coordinates": [ 115.5089354, -8.5338813 ] } },
{ "type": "Feature", "properties": { "name": "Dermaga 1 Kayangan", "name:en": "Pier 1 Kayangan ferry port", "amenity": "ferry_terminal", "building": null, "port": null, "operator:type": null, "addr:full": null, "addr:city": null, "source": null, "name:id": null, "osm_id": 3331688319, "osm_type": "nodes" }, "geometry": { "type": "Point", "coordinates": [ 116.6745294, -8.4849392 ] } },
{ "type": "Feature", "properties": { "name": "Kayangan", "name:en": null, "amenity": "ferry_terminal", "building": null, "port": null, "operator:type": null, "addr:full": null, "addr:city": null, "source": null, "name:id": null, "osm_id": 3537669951, "osm_type": "nodes" }, "geometry": { "type": "Point", "coordinates": [ 116.6726835, -8.4844654 ] } },
{ "type": "Feature", "properties": { "name": "Pelabuhan rakyat", "name:en": null, "amenity": "ferry_terminal", "building": null, "port": null, "operator:type": null, "addr:full": null, "addr:city": null, "source": null, "name:id": null, "osm_id": 4113441846, "osm_type": "nodes" }, "geometry": { "type": "Point", "coordinates": [ 116.6735836, -8.4989723 ] } },
{ "type": "Feature", "properties": { "name": "Pulau Pinus", "name:en": null, "amenity": "ferry_terminal", "building": null, "port": null, "operator:type": null, "addr:full": null, "addr:city": null, "source": null, "name:id": null, "osm_id": 10951233922, "osm_type": "nodes" }, "geometry": { "type": "Point", "coordinates": [ 115.0515278, -3.537368 ] } },